stop_id,stop_code,stop_name,stop_desc,stop_lat,stop_lon,location_type,parent_station,zone_id,WGS84,Israel1993,yx,y,x,betweeness,log-betweeness,central
3,38833,הנחשול/הדייגים,רחוב: הנחשול 30 עיר: ראשון לציון רציף:  קומה:,31.984553,34.782828,0,,38833,POINT (34.782828 31.984553),POINT (179603.02042079862 654675.9361802154),[654675.9361802154 179603.02042079862],654675.9361802154,179603.02042079862,2.177924326540239E-4,-8.4319680925409,false
6,38836,ת. מרכזית לוד/הורדה,רחוב:   עיר: לוד רציף:  קומה:,31.956392,34.898098,0,,38836,POINT (34.898098 31.956392),POINT (190488.43528199603 651516.5501640389),[651516.5501640389 190488.43528199603],651516.5501640389,190488.43528199603,1.5584890646039775E-4,-8.766623568391536,false
17,38847,חיים ברלב/שדרות יצחק רבין,רחוב: חיים ברלב 5 עיר: ראשון לציון רציף:  קומה:,31.978011,34.764342,0,,38847,POINT (34.764342 31.978011),POINT (177852.936240666 653957.4605138628),[653957.4605138628 177852.936240666],653957.4605138628,177852.936240666,3.4489631139667914E-4,-7.97226673278241,false
22,38852,הולצמן/המדע,רחוב: חיים הולצמן 2 עיר: רחובות רציף:  קומה:,31.914255,34.807944,0,,38852,POINT (34.807944 31.914255),POINT (181948.20722881862 646871.7381352665),[646871.7381352665 181948.20722881862],646871.7381352665,181948.20722881862,0.0018552162168741506,-6.2897540307534,true
24,38854,מחנה צריפין/מועדון,רחוב:   עיר: ראשון לציון רציף:  קומה:,31.963668,34.836363,0,,38854,POINT (34.836363 31.963668),POINT (184654.78265373188 652341.5574670823),[652341.5574670823 184654.78265373188],652341.5574670823,184654.78265373188,3.466348693063585E-4,-7.967238581858526,false
35,38865,רשות שדות התעופה/העליה,רחוב: שדרות העליה עיר: נמל תעופה בן גוריון רציף:  קומה:,31.990876,34.8976,0,,38865,POINT (34.8976 31.990876),POINT (190452.20117035438 655340.5510086691),[655340.5510086691 190452.20117035438],655340.5510086691,190452.20117035438,0.007441749057220061,-4.90064936943004,true
36,38866,כנף/ברוש,רחוב: כנף עיר: נמל תעופה בן גוריון רציף:  קומה:,31.998767,34.879725,0,,38866,POINT (34.879725 31.998767),POINT (188765.56888226682 656220.50664646),[656220.50664646 188765.56888226682],656220.50664646,188765.56888226682,5.2005989544993E-5,-9.864151662458406,false
69,38899,ת. רכבת רחובות/הורדה,רחוב:   עיר: רחובות רציף:  קומה:,31.909394,34.806216,0,,38899,POINT (34.806216 31.909394),POINT (181782.78713805566 646333.3129942063),[646333.3129942063 181782.78713805566],646333.3129942063,181782.78713805566,3.258810435945451E-5,-10.331563233131952,false
72,38902,ברשבסקי/מנחם כהן,רחוב: ברשבסקי 19 עיר: ראשון לציון רציף:  קומה:,31.973257,34.812308,0,,38902,POINT (34.812308 31.973257),POINT (182384.66306025637 653412.8552219219),[653412.8552219219 182384.66306025637],653412.8552219219,182384.66306025637,2.742402877208485E-6,-12.806676059386382,false
74,38904,יעקב פריימן/בנימין שמוטקין,רחוב: יעקב פריימן 9 עיר: ראשון לציון רציף:  קומה:,31.975479,34.813355,0,,38904,POINT (34.813355 31.975479),POINT (182484.51886894117 653658.8914817002),[653658.8914817002 182484.51886894117],653658.8914817002,182484.51886894117,1.8505067248130382E-4,-8.594880865086814,false
75,38905,אנילביץ'/שלום אש,רחוב: אנילביץ' 13 עיר: ראשון לציון רציף:  קומה:,31.982177,34.789445,0,,38905,POINT (34.789445 31.982177),POINT (180227.38899657733 654410.0452147762),[654410.0452147762 180227.38899657733],654410.0452147762,180227.38899657733,8.095693024620204E-4,-7.119008177069379,false
76,38906,נחמיה/בית העלמין,רחוב: נחמיה 71 עיר: ראשון לציון רציף:  קומה:,31.948552,34.822422,0,,38906,POINT (34.822422 31.948552),POINT (183330.99257432952 650669.9384174478),[650669.9384174478 183330.99257432952],650669.9384174478,183330.99257432952,1.090946007444647E-6,-13.728465341389617,false
77,38907,יהודה הלוי/גבעתי,רחוב: יהודה הלוי 85 עיר: ראשון לציון רציף:  קומה:,31.967681,34.815998,0,,38907,POINT (34.815998 31.967681),POINT (182731.23100423074 652793.2824253995),[652793.2824253995 182731.23100423074],652793.2824253995,182731.23100423074,3.796700250971861E-4,-7.8762080374898575,false
81,38911,גרינשפן/יגאל אלון,רחוב: גרינשפן עיר: ראשון לציון רציף:  קומה:,31.956842,34.814839,0,,38911,POINT (34.814839 31.956842),POINT (182617.34559254904 651591.7569972251),[651591.7569972251 182617.34559254904],651591.7569972251,182617.34559254904,2.5082558863821948E-5,-10.593337819340986,false
82,38912,השומר/האבות,רחוב: השומר 22 עיר: ראשון לציון רציף:  קומה:,31.959821,34.814747,0,,38912,POINT (34.814747 31.959821),POINT (182609.83743092595 651922.1246440362),[651922.1246440362 182609.83743092595],651922.1246440362,182609.83743092595,1.6192805257351703E-4,-8.72835844129891,false
83,38913,משה שרת/יעקב קנר,רחוב: משה שרת 38 עיר: ראשון לציון רציף:  קומה:,31.992306,34.75691,0,,38913,POINT (34.75691 31.992306),POINT (177157.03894627545 655545.5032117441),[655545.5032117441 177157.03894627545],655545.5032117441,177157.03894627545,5.998522215549985E-7,-14.326582509474788,false
84,38914,הדייגים/הנחשול,רחוב: הדייגים 45 עיר: ראשון לציון רציף:  קומה:,31.98497,34.78262,0,,38914,POINT (34.78262 31.98497),POINT (179583.5424784458 654722.2535432185),[654722.2535432185 179583.5424784458],654722.2535432185,179583.5424784458,1.5338226662683818E-4,-8.782577277885414,false
86,38916,יוסף בורג/משואות יצחק,רחוב: ד''ר יוסף בורג 9 עיר: ראשון לציון רציף:  קומה:,31.968049,34.818099,0,,38916,POINT (34.818099 31.968049),POINT (182929.9804126264 652833.3783023487),[652833.3783023487 182929.9804126264],652833.3783023487,182929.9804126264,7.248749726397429E-5,-9.532096462506509,false
87,38917,יוסף בורג/כתריאל רפפורט,רחוב: ד''ר יוסף בורג עיר: ראשון לציון רציף:  קומה:,31.968936,34.820043,0,,38917,POINT (34.820043 31.968936),POINT (183114.09188298899 652931.0818651932),[652931.0818651932 183114.09188298899],652931.0818651932,183114.09188298899,5.877479220293011E-6,-12.044382592005384,false
89,38919,וייצמן/החרש,רחוב: וייצמן עיר: נס ציונה רציף:  קומה:,31.923041,34.798033,0,,38919,POINT (34.798033 31.923041),POINT (181014.4500071213 647849.4707172547),[647849.4707172547 181014.4500071213],647849.4707172547,181014.4500071213,7.913359404243826E-4,-7.141787976913375,false
90,38920,שדרות משה דיין/יוסף לישנסקי,רחוב: שדרות משה דיין עיר: ראשון לציון רציף:  קומה:,31.98568,34.764014,0,,38920,POINT (34.764014 31.98568),POINT (177825.39733120898 654807.9948522744),[654807.9948522744 177825.39733120898],654807.9948522744,177825.39733120898,0.0015786347811554784,-6.451194868020316,true
91,38921,השר חיים שפירא/יוסף ספיר,רחוב: השר חיים משה שפירא 4 עיר: ראשון לציון רציף:  קומה:,31.992583,34.751999,0,,38921,POINT (34.751999 31.992583),POINT (176693.0619302129 655578.1510188649),[655578.1510188649 176693.0619302129],655578.1510188649,176693.0619302129,0.0,-Infinity,false
92,38922,השר חיים שפירא/הרב שלום ג'רופי,רחוב: השר חיים משה שפירא 16 עיר: ראשון לציון רציף:  קומה:,31.990757,34.755683,0,,38922,POINT (34.755683 31.990757),POINT (177040.37057296984 655374.216316326),[655374.216316326 177040.37057296984],655374.216316326,177040.37057296984,0.0,-Infinity,false
94,39001,שדרות יעקב/נחמיה,רחוב: שדרות יעקב 65 עיר: ראשון לציון רציף:  קומה:,31.950002,34.819131,0,,39001,POINT (34.819131 31.950002),POINT (183020.40821157576 650831.8289881197),[650831.8289881197 183020.40821157576],650831.8289881197,183020.40821157576,5.8492158377316966E-5,-9.746617857543463,false
95,39002,שדרות יעקב/יוסף הנשיא,רחוב: שדרות יעקב 53 עיר: ראשון לציון רציף:  קומה:,31.951813,34.820214,0,,39002,POINT (34.820214 31.951813),POINT (183123.5146303996 651032.2835134306),[651032.2835134306 183123.5146303996],651032.2835134306,183123.5146303996,9.908368669505894E-4,-6.91696065176539,false
97,39004,לייב יוספזון/יעקב ברמן,רחוב: יהודה לייב יוספזון עיר: רחובות רציף:  קומה:,31.905052,34.818909,0,,39004,POINT (34.818909 31.905052),POINT (182981.67837652587 645847.4985046772),[645847.4985046772 182981.67837652587],645847.4985046772,182981.67837652587,0.0025220767091738952,-5.982672625893285,true
98,39005,הרב יעקב ברמן/הרב יהודה צבי מלצר,רחוב: הרב יעקב ברמן 4 עיר: רחובות רציף:  קומה:,31.901879,34.819443,0,,39005,POINT (34.819443 31.901879),POINT (183030.94094120938 645495.4734065246),[645495.4734065246 183030.94094120938],645495.4734065246,183030.94094120938,1.8913810360629283E-4,-8.573033102829347,false
99,39006,ברמן/מלצר,רחוב: הרב יעקב ברמן עיר: רחובות רציף:  קומה:,31.90281,34.818922,0,,39006,POINT (34.818922 31.90281),POINT (182982.0238368757 645598.8846740249),[645598.8846740249 182982.0238368757],645598.8846740249,182982.0238368757,1.4160952396725178E-4,-8.862437119310751,false
100,39007,הנשיא הראשון/מכון ויצמן,רחוב: הנשיא הראשון 55 עיר: רחובות רציף:  קומה:,31.904618,34.815531,0,,39007,POINT (34.815531 31.904618),POINT (182661.97292245703 645800.5149236448),[645800.5149236448 182661.97292245703],645800.5149236448,182661.97292245703,2.4375965401053423E-4,-8.319327842673559,false
101,39008,הנשיא הראשון/קיפניס,רחוב: הנשיא הראשון 56 עיר: רחובות רציף:  קומה:,31.904755,34.816661,0,,39008,POINT (34.816661 31.904755),POINT (182768.91707532603 645815.3235222005),[645815.3235222005 182768.91707532603],645815.3235222005,182768.91707532603,2.502608351022707E-4,-8.293006843594267,false
102,39009,שמחה הולצברג/אברהם ליכטנשטיין,רחוב: שמחה הולצברג 1 עיר: באר יעקב רציף:  קומה:,31.932562,34.831995,0,,39009,POINT (34.831995 31.932562),POINT (184229.99904077133 648893.6865713687),[648893.6865713687 184229.99904077133],648893.6865713687,184229.99904077133,0.0,-Infinity,false
103,39010,שמחה הולצברג/אברהם ליכטנשטיין,רחוב: שמחה הולצברג 11 עיר: באר יעקב רציף:  קומה:,31.932649,34.831881,0,,39010,POINT (34.831881 31.932649),POINT (184219.25192259724 648903.3708867065),[648903.3708867065 184219.25192259724],648903.3708867065,184219.25192259724,0.0,-Infinity,false
105,39012,הירדן/הערבה,רחוב: הירדן 23 עיר: באר יעקב רציף:  קומה:,31.937387,34.838609,0,,39012,POINT (34.838609 31.937387),POINT (184857.25310107984 649426.588386629),[649426.588386629 184857.25310107984],649426.588386629,184857.25310107984,4.331482469711066E-5,-10.047015609793915,false
106,39013,הירדן/חרוד,רחוב: הירדן 22 עיר: באר יעקב רציף:  קומה:,31.936925,34.838341,0,,39013,POINT (34.838341 31.936925),POINT (184831.73806465615 649375.443854382),[649375.443854382 184831.73806465615],649375.443854382,184831.73806465615,2.955626555137392E-4,-8.126629711398376,false
107,39014,האלונים/הדקל,רחוב: שדרות האלונים עיר: באר יעקב רציף:  קומה:,31.939037,34.831964,0,,39014,POINT (34.831964 31.939037),POINT (184229.5371164372 649611.6954090605),[649611.6954090605 184229.5371164372],649611.6954090605,184229.5371164372,8.327957059065432E-5,-9.393307289882978,false
108,39015,האלונים/שמואל שפירא,רחוב: שדרות האלונים עיר: באר יעקב רציף:  קומה:,31.94226,34.831681,0,,39015,POINT (34.831681 31.94226),POINT (184204.00771205017 649969.1792745368),[649969.1792745368 184204.00771205017],649969.1792745368,184204.00771205017,2.7197005443474394E-4,-8.209818591718976,false
110,39017,האלונים א/הדקל,רחוב: שדרות האלונים עיר: באר יעקב רציף:  קומה:,31.939656,34.832104,0,,39017,POINT (34.832104 31.939656),POINT (184243.01117970323 649680.2894911239),[649680.2894911239 184243.01117970323],649680.2894911239,184243.01117970323,2.848221194505681E-4,-8.163645714832208,false
128,39035,אלמוג סנטר/אפרים קישון,רחוב: אפרים קישון 20 עיר: באר יעקב רציף:  קומה:,31.941611,34.843114,0,,39035,POINT (34.843114 31.941611),POINT (185284.80478450327 649893.5483693915),[649893.5483693915 185284.80478450327],649893.5483693915,185284.80478450327,7.229098287122152E-5,-9.534811154817888,false
132,39039,גן חק''ל/רבאט,רחוב: רבאט עיר: רמלה רציף:  קומה:,31.931068,34.884936,0,,39039,POINT (34.884936 31.931068),POINT (189235.82053013798 648712.0277817271),[648712.0277817271 189235.82053013798],648712.0277817271,189235.82053013798,2.1258519032385265E-4,-8.45616775429533,false
133,39040,גן חק''ל/רבאט,רחוב: רבאט עיר: רמלה רציף:  קומה:,31.931204,34.884956,0,,39040,POINT (34.884956 31.931204),POINT (189237.75632366547 648727.1029000636),[648727.1029000636 189237.75632366547],648727.1029000636,189237.75632366547,3.0790199669147103E-6,-12.690899204172943,false
134,39041,קניון צ. רמלה לוד/דוכיפת,רחוב: דוכיפת עיר: רמלה רציף:  קומה:,31.933379,34.887207,0,,39041,POINT (34.887207 31.933379),POINT (189451.32910592365 648967.6574763864),[648967.6574763864 189451.32910592365],648967.6574763864,189451.32910592365,1.627237078301883E-4,-8.723456839356597,false
135,39042,היצירה/התקווה,רחוב: היצירה 2 עיר: רמלה רציף:  קומה:,31.929318,34.880069,0,,39042,POINT (34.880069 31.929318),POINT (188774.98966440072 648519.3427753035),[648519.3427753035 188774.98966440072],648519.3427753035,188774.98966440072,2.185264608023113E-5,-10.731188541684864,false
136,39043,היצירה/התקווה,רחוב: היצירה עיר: רמלה רציף:  קומה:,31.929199,34.879993,0,,39043,POINT (34.879993 31.929199),POINT (188767.7630308944 648506.1686926486),[648506.1686926486 188767.7630308944],648506.1686926486,188767.7630308944,6.391779467849047E-5,-9.657912758376618,false
137,39044,עמל/היצירה,רחוב: עמל עיר: רמלה רציף:  קומה:,31.932402,34.881442,0,,39044,POINT (34.881442 31.932402),POINT (188905.85027243558 648860.931779892),[648860.931779892 188905.85027243558],648860.931779892,188905.85027243558,5.080514556815311E-6,-12.190098010791766,false
138,39045,נווה תרצה,רחוב:   עיר: רמלה רציף:  קומה:,31.934488,34.879631,0,,39045,POINT (34.879631 31.934488),POINT (188735.28858632658 649092.7553931038),[649092.7553931038 188735.28858632658],649092.7553931038,188735.28858632658,0.0,-Infinity,false
141,39048,ישראל פרנקל/הרמב''ם,רחוב: ישראל פרנקל עיר: רמלה רציף:  קומה:,31.934896,34.863001,0,,39048,POINT (34.863001 31.934896),POINT (187162.86643377034 649142.8348869366),[649142.8348869366 187162.86643377034],649142.8348869366,187162.86643377034,0.0,-Infinity,false
144,39051,ישראל פרנקל/דוב הוז,רחוב: ישראל פרנקל 17 עיר: רמלה רציף:  קומה:,31.935488,34.863972,0,,39051,POINT (34.863972 31.935488),POINT (187254.89207444614 649208.1912965215),[649208.1912965215 187254.89207444614],649208.1912965215,187254.89207444614,0.0,-Infinity,false
145,39052,יוספטל/הדס,רחוב: גיורא יוספטל 6 עיר: רמלה רציף:  קומה:,31.936109,34.857638,0,,39052,POINT (34.857638 31.936109),POINT (186656.16357174618 649278.9531465786),[649278.9531465786 186656.16357174618],649278.9531465786,186656.16357174618,9.900767881742365E-5,-9.22031314702524,false
147,39054,עמיחי/מאיר בינט,רחוב: עמיחי 3 עיר: רמלה רציף:  קומה:,31.936308,34.856334,0,,39054,POINT (34.856334 31.936308),POINT (186532.92784016472 649301.4154335532),[649301.4154335532 186532.92784016472],649301.4154335532,186532.92784016472,0.0,-Infinity,false
148,39055,השריון/הצנחנים,רחוב: השריון עיר: רמלה רציף:  קומה:,31.933337,34.856046,0,,39055,POINT (34.856046 31.933337),POINT (186504.63466464076 648972.0556811069),[648972.0556811069 186504.63466464076],648972.0556811069,186504.63466464076,0.0,-Infinity,false
149,39056,אהרון בוגנים/משה שרת,רחוב: שמחה הולצברג עיר: רמלה רציף:  קומה:,31.933413,34.853906,0,,39056,POINT (34.853906 31.933413),POINT (186302.29675076273 648981.1361419518),[648981.1361419518 186302.29675076273],648981.1361419518,186302.29675076273,1.006143143997693E-5,-11.506801113158824,false
150,39057,גרשון ש''ץ/שמחה הולצברג,רחוב: שמחה הולצברג 10 עיר: רמלה רציף:  קומה:,31.932532,34.853223,0,,39057,POINT (34.853223 31.932532),POINT (186237.39333912908 648883.6533528266),[648883.6533528266 186237.39333912908],648883.6533528266,186237.39333912908,5.748717623979884E-7,-14.369118842938688,false
151,39058,הולצברג/שץ,רחוב: שמחה הולצברג 4 עיר: רמלה רציף:  קומה:,31.93166,34.853149,0,,39058,POINT (34.853149 31.93166),POINT (186230.08196785048 648786.9820095528),[648786.9820095528 186230.08196785048],648786.9820095528,186230.08196785048,0.0,-Infinity,false
152,39059,אשכול/הרב שפירא,רחוב: לוי אשכול 11 עיר: רמלה רציף:  קומה:,31.929827,34.857194,0,,39059,POINT (34.857194 31.929827),POINT (186611.94527921866 648582.4914510378),[648582.4914510378 186611.94527921866],648582.4914510378,186611.94527921866,3.6224317114231906E-4,-7.923194828170102,false
153,39060,יהודה שטיין/קרן היסוד,רחוב: יהודה שטיין עיר: רמלה רציף:  קומה:,31.926545,34.855866,0,,39060,POINT (34.855866 31.926545),POINT (186485.18943302892 648218.9618223562),[648218.9618223562 186485.18943302892],648218.9618223562,186485.18943302892,0.0016308179562936713,-6.418673576352744,true
159,39066,שמשון הגיבור/המסגד,רחוב: שמשון הגיבור עיר: רמלה רציף:  קומה:,31.926441,34.866014,0,,39066,POINT (34.866014 31.926441),POINT (187444.85077135352 648204.3861646745),[648204.3861646745 187444.85077135352],648204.3861646745,187444.85077135352,4.8110646777110495E-6,-12.244592151622701,false
161,39068,ביאליק/חניתה,רחוב: ח.נ. ביאליק 19 עיר: רמלה רציף:  קומה:,31.924484,34.870366,0,,39068,POINT (34.870366 31.924484),POINT (187855.75090624127 647986.1018058893),[647986.1018058893 187855.75090624127],647986.1018058893,187855.75090624127,1.510496209700405E-4,-8.79790215943603,false
162,39069,קופת חולים כללית/ביאליק,רחוב: ח.נ. ביאליק 34 עיר: רמלה רציף:  קומה:,31.921629,34.868801,0,,39069,POINT (34.868801 31.921629),POINT (187706.76458603464 647669.9757341399),[647669.9757341399 187706.76458603464],647669.9757341399,187706.76458603464,2.9374516461196618E-5,-10.435383046530868,false
163,39070,א.ס לוי/סעדיה מרדכי,רחוב: א.ס. לוי 1 עיר: רמלה רציף:  קומה:,31.9209,34.861221,0,,39070,POINT (34.861221 31.9209),POINT (186989.62913086748 647591.3848946183),[647591.3848946183 186989.62913086748],647591.3848946183,186989.62913086748,3.564026138498886E-4,-7.939449528360034,false
164,39071,רזיאל/זכריה,רחוב: שדרות דוד רזיאל 5 עיר: רמלה רציף:  קומה:,31.923666,34.862813,0,,39071,POINT (34.862813 31.923666),POINT (187141.1611436227 647897.6236544029),[647897.6236544029 187141.1611436227],647897.6236544029,187141.1611436227,2.0495358856715092E-4,-8.492727001690998,false
165,39072,חרוד א,רחוב: חרוד עיר: ישרש רציף:  קומה:,31.912572,34.850134,0,,39072,POINT (34.850134 31.912572),POINT (185938.04637353355 646671.2901284023),[646671.2901284023 185938.04637353355],646671.2901284023,185938.04637353355,1.5843244443722107E-4,-8.750182273565372,false
166,39073,חרוד/הירדן,רחוב: חרוד עיר: ישרש רציף:  קומה:,31.915977,34.848217,0,,39073,POINT (34.848217 31.915977),POINT (185757.96923570568 647049.456086541),[647049.456086541 185757.96923570568],647049.456086541,185757.96923570568,9.085360749715316E-6,-11.608846148625426,false
167,39074,הירדן/דן,רחוב: הירדן עיר: ישרש רציף:  קומה:,31.915321,34.852309,0,,39074,POINT (34.852309 31.915321),POINT (186144.75813220348 646975.4488797296),[646975.4488797296 186144.75813220348],646975.4488797296,186144.75813220348,0.0,-Infinity,false
168,39075,הירדן/דן,רחוב: הירדן עיר: ישרש רציף:  קומה:,31.915489,34.852139,0,,39075,POINT (34.852139 31.915489),POINT (186128.73982634157 646994.1302243773),[646994.1302243773 186128.73982634157],646994.1302243773,186128.73982634157,4.129701628398121E-6,-12.397305398541047,false
169,39076,עוזי חיטמן/שושנה דמארי,רחוב: עוזי חיטמן 44 עיר: רמלה רציף:  קומה:,31.917022,34.868261,0,,39076,POINT (34.868261 31.917022),POINT (187654.10885946613 647159.276025518),[647159.276025518 187654.10885946613],647159.276025518,187654.10885946613,1.0365554599666449E-4,-9.17443721355142,false
170,39077,עוזי חיטמן/דליה רביקוביץ,רחוב: עוזי חיטמן 24 עיר: רמלה רציף:  קומה:,31.918782,34.870995,0,,39077,POINT (34.870995 31.918782),POINT (187913.29068425292 647353.6386545851),[647353.6386545851 187913.29068425292],647353.6386545851,187913.29068425292,3.830522241833889E-6,-12.472509408497089,false
171,39078,עוזי חיטמן/חנוך לוין,רחוב: עוזי חיטמן 10 עיר: רמלה רציף:  קומה:,31.918696,34.873447,0,,39078,POINT (34.873447 31.918696),POINT (188145.16679465765 647343.391236838),[647343.391236838 188145.16679465765],647343.391236838,188145.16679465765,1.518293852597652E-4,-8.792753132950368,false
172,39079,אהוד מנור/חיטמן,רחוב: אהוד מנור עיר: רמלה רציף:  קומה:,31.916945,34.874461,0,,39079,POINT (34.874461 31.916945),POINT (188240.47761484695 647148.9350344978),[647148.9350344978 188240.47761484695],647148.9350344978,188240.47761484695,7.069466213404015E-4,-7.254555395143727,false
173,39080,שושנה דמארי/אהוד מנור,רחוב: שושנה דמארי 18 עיר: רמלה רציף:  קומה:,31.916141,34.872134,0,,39080,POINT (34.872134 31.916141),POINT (188020.11682444805 647060.4543016952),[647060.4543016952 188020.11682444805],647060.4543016952,188020.11682444805,3.985974767934515E-4,-7.827558480377588,false
174,39081,שושנה דמארי/אהוד מנור,רחוב: שושנה דמארי עיר: רמלה רציף:  קומה:,31.916235,34.873652,0,,39081,POINT (34.873652 31.916235),POINT (188163.7221412425 647070.4383786799),[647070.4383786799 188163.7221412425],647070.4383786799,188163.7221412425,1.5793052989673478E-4,-8.753355305824629,false
175,39082,אהוד מנור/עוזי חיטמן,רחוב: אהוד מנור 9 עיר: רמלה רציף:  קומה:,31.917837,34.874646,0,,39082,POINT (34.874646 31.917837),POINT (188258.27596416365 647247.7932261117),[647247.7932261117 188258.27596416365],647247.7932261117,188258.27596416365,3.415113255135745E-4,-7.982129715481164,false
176,39083,בי''ס האמנים/עוזי חיטמן,רחוב: עוזי חיטמן 34 עיר: רמלה רציף:  קומה:,31.917891,34.868634,0,,39083,POINT (34.868634 31.917891),POINT (187689.68578706073 647255.527710902),[647255.527710902 187689.68578706073],647255.527710902,187689.68578706073,4.665553586514316E-5,-9.972718969648328,false
613,39536,מחלף נשרים,רחוב: 44 עיר: גזר רציף:  קומה:,31.901922,34.888167,0,,39536,POINT (34.888167 31.901922),POINT (189531.9271265582 645479.2122993745),[645479.2122993745 189531.9271265582],645479.2122993745,189531.9271265582,2.3021517797385677E-4,-8.37649612999314,false
633,39558,כלנית/יסמין,רחוב: הכלנית 24 עיר: בית דגן רציף:  קומה:,31.996307,34.828531,0,,39558,POINT (34.828531 31.996307),POINT (183926.98520009697 655963.3966129385),[655963.3966129385 183926.98520009697],655963.3966129385,183926.98520009697,1.0206884723977786E-5,-11.492448092426832,false
641,39568,רזיאל/א.ס. לוי,רחוב: שדרות דוד רזיאל עיר: רמלה רציף:  קומה:,31.921328,34.861894,0,,39568,POINT (34.861894 31.921328),POINT (187053.42875617693 647638.6432627826),[647638.6432627826 187053.42875617693],647638.6432627826,187053.42875617693,0.0,-Infinity,false
642,39569,אנילביץ/שלמה המלך,רחוב: אנילביץ' 2 עיר: ראשון לציון רציף:  קומה:,31.980533,34.789306,0,,39569,POINT (34.789306 31.980533),POINT (180213.55190952276 654227.7943067958),[654227.7943067958 180213.55190952276],654227.7943067958,180213.55190952276,8.360302226323999E-5,-9.389430887052905,false
643,39570,מרכז רום/אבשלום גיסין,רחוב: אבשלום גיסין 10 עיר: פתח תקווה רציף:  קומה:,32.097971,34.88065,0,,39570,POINT (34.88065 32.097971),POINT (188885.9735317344 667220.9313568063),[667220.9313568063 188885.9735317344],667220.9313568063,188885.9735317344,0.0015592857981509747,-6.463527384251136,true
644,39571,משה סנה/גיסין,רחוב: משה סנה 10 עיר: פתח תקווה רציף:  קומה:,32.098887,34.879087,0,,39571,POINT (34.879087 32.098887),POINT (188738.74205961294 667322.9512045339),[667322.9512045339 188738.74205961294],667322.9512045339,188738.74205961294,7.873308601845665E-4,-7.146861991051178,false
648,39575,מזכרת בתיה/זכרון יעקב,רחוב: מזכרת בתיה 12 עיר: פתח תקווה רציף:  קומה:,32.100858,34.87302,0,,39575,POINT (34.87302 32.100858),POINT (188166.73041911522 667543.2609136562),[667543.2609136562 188166.73041911522],667543.2609136562,188166.73041911522,0.0,-Infinity,false
654,39581,גוש עציון/הציונות,רחוב: גוש עציון 9 עיר: גבעת שמואל רציף:  קומה:,32.07944,34.845776,0,,39581,POINT (34.845776 32.07944),POINT (185587.23491618683 665176.4406288954),[665176.4406288954 185587.23491618683],665176.4406288954,185587.23491618683,0.0,-Infinity,false
659,39586,הזיתים/הרימון,רחוב: הזיתים עיר: גבעת שמואל רציף:  קומה:,32.081942,34.8521,0,,39586,POINT (34.8521 32.081942),POINT (186185.21114664248 665451.920118832),[665451.920118832 186185.21114664248],665451.920118832,186185.21114664248,5.518949186000028E-6,-12.107323080652026,false
699,39626,הזיתים/הרימון,רחוב: הזיתים עיר: גבעת שמואל רציף:  קומה:,32.08216,34.852286,0,,39626,POINT (34.852286 32.08216),POINT (186202.850476994 665476.0368469995),[665476.0368469995 186202.850476994],665476.0368469995,186202.850476994,3.9890063737190526E-5,-10.129383294224457,false
701,39628,ת. מרכזית פ''ת,רחוב: זאב אורלוב 59 עיר: פתח תקווה רציף:  קומה:,32.094807,34.886466,0,,39628,POINT (34.886466 32.094807),POINT (189433.93489909495 666868.4401050513),[666868.4401050513 189433.93489909495],666868.4401050513,189433.93489909495,6.851756318131401E-4,-7.285835355758589,false
702,39629,ביה''ח תל השומר/מנהלה,רחוב:   עיר: רמת גן רציף:  קומה:,32.047823,34.845098,0,,39629,POINT (34.845098 32.047823),POINT (185511.5472518605 661670.6446585214),[661670.6446585214 185511.5472518605],661670.6446585214,185511.5472518605,0.0,-Infinity,false
739,39679,טשרניחובסקי/ויצ''ו,רחוב: טשרניחובסקי 30 עיר: כפר סבא רציף:  קומה:,32.177662,34.894095,0,,39679,POINT (34.894095 32.177662),POINT (190180.5713034437 676054.2172894259),[676054.2172894259 190180.5713034437],676054.2172894259,190180.5713034437,2.522429621210543E-5,-10.587702892525899,false
759,39719,מסוף וולפסון,רחוב: מגרש אימונים מיתחם וולפסון הפועל תל אביב עיר: חולון רציף:  קומה:,32.036865,34.762099,1,,39719,POINT (34.762099 32.036865),POINT (177667.64302110465 660484.6166368674),[660484.6166368674 177667.64302110465],660484.6166368674,177667.64302110465,2.5958900431497325E-4,-8.256410930291125,false
761,39721,מתחם ג'י/ילדי טהרן,רחוב: ילדי טהרן עיר: ראשון לציון רציף:  קומה:,31.985269,34.769308,0,,39721,POINT (34.769308 31.985269),POINT (178325.54985505252 654760.3940453095),[654760.3940453095 178325.54985505252],654760.3940453095,178325.54985505252,0.0,-Infinity,false
762,39722,רבוצקי/דוד אלעזר,רחוב: רבוצקי 78 עיר: רעננה רציף:  קומה:,32.184212,34.886282,0,,39722,POINT (34.886282 32.184212),POINT (189445.85990405118 676782.7116499856),[676782.7116499856 189445.85990405118],676782.7116499856,189445.85990405118,1.1871017003089885E-4,-9.038825581578243,false
763,39723,האוניברסיטה הפתוחה/רבוצקי,רחוב: רבוצקי 83 עיר: רעננה רציף:  קומה:,32.188321,34.887123,0,,39723,POINT (34.887123 32.188321),POINT (189526.51520564247 677238.1322715349),[677238.1322715349 189526.51520564247],677238.1322715349,189526.51520564247,8.434811585891563E-5,-9.380558086401198,false
765,39725,מרכז לקשיש/ההגנה,רחוב: ההגנה 114 עיר: רעננה רציף:  קומה:,32.188954,34.868116,0,,39725,POINT (34.868116 32.188954),POINT (187734.35354473186 677313.7745408075),[677313.7745408075 187734.35354473186],677313.7745408075,187734.35354473186,1.7801566202148915E-4,-8.633639022658214,false
766,39726,פרדס משותף/הרצל,רחוב: פרדס משותף 59 עיר: רעננה רציף:  קומה:,32.175277,34.8665,0,,39726,POINT (34.8665 32.175277),POINT (187577.19833516952 675797.5830030085),[675797.5830030085 187577.19833516952],675797.5830030085,187577.19833516952,3.789812957217693E-5,-10.180608798751328,false
772,39736,שדרות העצמאות/רוטשילד,רחוב: שדרות העצמאות 61 עיר: בת ים רציף:  קומה:,32.026569,34.748079,0,,39736,POINT (34.748079 32.026569),POINT (176338.5241599053 659348.4032893925),[659348.4032893925 176338.5241599053],659348.4032893925,176338.5241599053,0.0018209547479913915,-6.308394328632534,true
773,39737,דוד אלעזר/קרן היסוד,רחוב: דוד אלעזר 44 עיר: חולון רציף:  קומה:,32.007736,34.784654,0,,39737,POINT (34.784654 32.007736),POINT (179785.57941404122 657246.0084890682),[657246.0084890682 179785.57941404122],657246.0084890682,179785.57941404122,3.810765355053459E-5,-10.175095415413963,false
775,39739,ההסתדרות/שנקר,רחוב: ההסתדרות 54 עיר: חולון רציף:  קומה:,32.017521,34.774012,0,,39739,POINT (34.774012 32.017521),POINT (178784.3674175622 658335.0175908516),[658335.0175908516 178784.3674175622],658335.0175908516,178784.3674175622,3.0906017994934015E-4,-8.08197454291163,false
779,39743,האיכרים/המצודה,רחוב: האיכרים 12 עיר: אזור רציף:  קומה:,32.028945,34.799932,0,,39743,POINT (34.799932 32.028945),POINT (181237.96042092599 659592.3581329604),[659592.3581329604 181237.96042092599],659592.3581329604,181237.96042092599,3.0322039590150953E-5,-10.403635730648096,false
781,39745,משה שרת/הרצוג,רחוב: משה שרת 34 עיר: אזור רציף:  קומה:,32.028392,34.802434,0,,39745,POINT (34.802434 32.028392),POINT (181474.0846824753 659530.153769603),[659530.153769603 181474.0846824753],659530.153769603,181474.0846824753,2.1980643818012092E-4,-8.422763225340375,false
783,39747,המנור/הרוקמים,רחוב: המנור 11 עיר: חולון רציף:  קומה:,32.006283,34.804331,0,,39747,POINT (34.804331 32.006283),POINT (181644.20801804794 657077.8342203216),[657077.8342203216 181644.20801804794],657077.8342203216,181644.20801804794,1.3479728544947894E-4,-8.911738497303974,false
785,39749,קמפוס חנקין/חנקין,רחוב: יהושע חנקין 105 עיר: חולון רציף:  קומה:,32.016078,34.778599,0,,39749,POINT (34.778599 32.016078),POINT (179217.1040656751 658173.2867594155),[658173.2867594155 179217.1040656751],658173.2867594155,179217.1040656751,2.589046868115993E-4,-8.259050568583461,false
786,39750,הופיין/זלמן ארן,רחוב: אליעזר הופיין 13 עיר: חולון רציף:  קומה:,32.014255,34.766926,0,,39750,POINT (34.766926 32.014255),POINT (178113.43476842708 657975.540931857),[657975.540931857 178113.43476842708],657975.540931857,178113.43476842708,6.21216369880287E-4,-7.383831115008157,false
791,39755,קמפוס חנקין/חנקין,רחוב: יהושע חנקין 110 עיר: חולון רציף:  קומה:,32.015703,34.778475,0,,39755,POINT (34.778475 32.015703),POINT (179205.2247715089 658131.7493542983),[658131.7493542983 179205.2247715089],658131.7493542983,179205.2247715089,9.54424491933561E-5,-9.25698711837735,false
801,39765,המלאכה/האורגים,רחוב: המלאכה עיר: חולון רציף:  קומה:,32.012089,34.797033,0,,39765,POINT (34.797033 32.012089),POINT (180957.05667026874 657724.2336612487),[657724.2336612487 180957.05667026874],657724.2336612487,180957.05667026874,3.718589804780024E-4,-7.896995860298463,false
806,39770,בגין/פנחס אילון,רחוב: מנחם בגין עיר: חולון רציף:  קומה:,32.004807,34.778631,0,,39770,POINT (34.778631 32.004807),POINT (179215.20288094718 656923.4397684798),[656923.4397684798 179215.20288094718],656923.4397684798,179215.20288094718,3.5166856833321184E-4,-7.952821393154245,false
807,39771,פנחס אילון/בגין,רחוב: מנחם בגין 29 עיר: חולון רציף:  קומה:,32.004839,34.776296,0,,39771,POINT (34.776296 32.004839),POINT (178994.58204518634 656927.8598032794),[656927.8598032794 178994.58204518634],656927.8598032794,178994.58204518634,4.2435044557454117E-4,-7.764950921532547,false
810,39774,פנחס אילון/האלוף יריב,רחוב: פנחס אילון 13 עיר: חולון רציף:  קומה:,32.008859,34.778158,0,,39774,POINT (34.778158 32.008859),POINT (179172.28114226792 657372.9397776015),[657372.9397776015 179172.28114226792],657372.9397776015,179172.28114226792,2.3328328322229688E-5,-10.665842128067412,false
811,39775,הרוקמים/הבנאי,רחוב: הרוקמים 20 עיר: חולון רציף:  קומה:,32.008484,34.800141,0,,39775,POINT (34.800141 32.008484),POINT (181249.21348440228 657323.3747967377),[657323.3747967377 181249.21348440228],657323.3747967377,181249.21348440228,2.257834618294047E-4,-8.395934151493504,false
812,39776,הלהב/הרוקמים,רחוב: הלהב עיר: חולון רציף:  קומה:,32.007227,34.801097,0,,39776,POINT (34.801097 32.007227),POINT (181339.02230960227 657183.6494665601),[657183.6494665601 181339.02230960227],657183.6494665601,181339.02230960227,8.409899191913901E-6,-11.686101070744018,false
821,39785,האורן/הברוש,רחוב: האורן 18 עיר: מגשימים רציף:  קומה:,32.043999,34.898296,0,,39785,POINT (34.898296 32.043999),POINT (190534.66778074973 661231.1170010522),[661231.1170010522 190534.66778074973],661231.1170010522,190534.66778074973,6.206772743007007E-4,-7.3846992982313715,false
823,39787,האורגים/המרכבה,רחוב: האורגים 30 עיר: חולון רציף:  קומה:,32.007791,34.807276,0,,39787,POINT (34.807276 32.007791),POINT (181923.09160195594 657244.0288283834),[657244.0288283834 181923.09160195594],657244.0288283834,181923.09160195594,3.4681691008361525E-4,-7.966713553913256,false
825,39789,דרך יצחק רבין/העצמאות,רחוב: דרך יצחק רבין עיר: פתח תקווה רציף:  קומה:,32.07449,34.860039,0,,39789,POINT (34.860039 32.07449),POINT (186932.09933519058 664623.1454937209),[664623.1454937209 186932.09933519058],664623.1454937209,186932.09933519058,2.107854783954161E-4,-8.464669631737245,false
866,39830,בי''ח מאיר/טשרניחובסקי,רחוב: טשרניחובסקי עיר: כפר סבא רציף:  קומה:,32.181056,34.897786,0,,39830,POINT (34.897786 32.181056),POINT (190529.75004756264 676429.5855207989),[676429.5855207989 190529.75004756264],676429.5855207989,190529.75004756264,0.0020586442230163446,-6.185707657019416,true
867,39831,בי''ח מאיר/טשרניחובסקי,רחוב: טשרניחובסקי עיר: כפר סבא רציף:  קומה:,32.181197,34.897648,0,,39831,POINT (34.897648 32.181197),POINT (190516.78007298906 676445.2583795175),[676445.2583795175 190516.78007298906],676445.2583795175,190516.78007298906,6.877587398040442E-4,-7.282072450419114,false
868,39832,מכבי אש/טשרניחובסקי,רחוב: טשרניחובסקי 42 עיר: כפר סבא רציף:  קומה:,32.179132,34.895692,0,,39832,POINT (34.895692 32.179132),POINT (190331.65553496045 676216.7947173561),[676216.7947173561 190331.65553496045],676216.7947173561,190331.65553496045,0.002177048317928658,-6.129785302245361,true
869,39833,טשרניחובסקי/גולומב,רחוב: טשרניחובסקי 41 עיר: כפר סבא רציף:  קומה:,32.179587,34.895908,0,,39833,POINT (34.895908 32.179587),POINT (190352.17134030449 676267.192017153),[676267.192017153 190352.17134030449],676267.192017153,190352.17134030449,8.35354473715969E-6,-11.692824589764063,false
870,39834,טשרניחובסקי/לילנבלום,רחוב: טשרניחובסקי 73 עיר: כפר סבא רציף:  קומה:,32.182538,34.899128,0,,39834,POINT (34.899128 32.182538),POINT (190656.7786133193 676593.5670976571),[676593.5670976571 190656.7786133193],676593.5670976571,190656.7786133193,1.4401534781718773E-4,-8.845590682003934,false
882,39846,דוד רמז/ויתקין,רחוב: דוד רמז 31 עיר: כפר סבא רציף:  קומה:,32.191134,34.899803,0,,39846,POINT (34.899803 32.191134),POINT (190723.13625724288 677546.6132124964),[677546.6132124964 190723.13625724288],677546.6132124964,190723.13625724288,3.3514039805462235E-5,-10.303546108260058,false
883,39847,רמז/מרכז הנוער,רחוב: רינגלבלום עיר: כפר סבא רציף:  קומה:,32.191382,34.896854,0,,39847,POINT (34.896854 32.191382),POINT (190445.12975099473 677574.9061256982),[677574.9061256982 190445.12975099473],677574.9061256982,190445.12975099473,1.0555547655591623E-5,-11.458858992117868,false
884,39848,שד' מנחם בגין/משה סנה,רחוב: שדרות מנחם בגין עיר: כפר סבא רציף:  קומה:,32.189361,34.898453,0,,39848,POINT (34.898453 32.189361),POINT (190595.27428089315 677350.3632679875),[677350.3632679875 190595.27428089315],677350.3632679875,190595.27428089315,1.4695500424631436E-4,-8.82538411160422,false
885,39849,שד' מנחם בגין/משה סנה,רחוב: שדרות מנחם בגין עיר: כפר סבא רציף:  קומה:,32.188521,34.899542,0,,39849,POINT (34.899542 32.188521),POINT (190697.7028031104 677256.9223429443),[677256.9223429443 190697.7028031104],677256.9223429443,190697.7028031104,9.475819510810799E-7,-13.869352411823886,false
886,39850,ד''ר משה סנה/אהוד מנור,רחוב: ד''ר משה סנה 31 עיר: כפר סבא רציף:  קומה:,32.18737,34.896917,0,,39850,POINT (34.896917 32.18737),POINT (190449.79812214844 677129.9906656336),[677129.9906656336 190449.79812214844],677129.9906656336,190449.79812214844,0.0020666289693990485,-6.181836516378927,true
887,39851,מדרשית נעם/ד''ר משה סנה,רחוב: ד''ר משה סנה 17 עיר: כפר סבא רציף:  קומה:,32.18525,34.896139,0,,39851,POINT (34.896139 32.18525),POINT (190375.75715858446 676895.1099381002),[676895.1099381002 190375.75715858446],676895.1099381002,190375.75715858446,2.9500085521239267E-4,-8.128532302603597,false
900,39864,יערה/לוינסקי,רחוב: יערה 2 עיר: כפר סבא רציף:  קומה:,32.185971,34.899848,0,,39864,POINT (34.899848 32.185971),POINT (190725.75788119223 676974.0662423595),[676974.0662423595 190725.75788119223],676974.0662423595,190725.75788119223,0.0,-Infinity,false
903,39867,בן גוריון/פרדס משותף,רחוב: בן גוריון 45 עיר: רעננה רציף:  קומה:,32.175102,34.869283,0,,39867,POINT (34.869283 32.175102),POINT (187839.61539653776 675777.3557415279),[675777.3557415279 187839.61539653776],675777.3557415279,187839.61539653776,1.1991050877011383E-4,-9.028764853648784,false
906,39870,תיכון אביב/הפרחים,רחוב: הפרחים 1 עיר: רעננה רציף:  קומה:,32.177535,34.861213,0,,39870,POINT (34.861213 32.177535),POINT (187079.3559229956 676049.5556387976),[676049.5556387976 187079.3559229956],676049.5556387976,187079.3559229956,6.346596757104591E-4,-7.362421646503832,false
908,39872,המלכים/יעקב דורי,רחוב: המלכים 34 עיר: רעננה רציף:  קומה:,32.179713,34.860052,0,,39872,POINT (34.860052 32.179713),POINT (186970.6326437863 676291.428244135),[676291.428244135 186970.6326437863],676291.428244135,186970.6326437863,1.0162467792379517E-4,-9.19422415936287,false
910,39874,פיכמן/הופיין,רחוב: יעקב פיכמן עיר: חולון רציף:  קומה:,32.013642,34.775162,0,,39874,POINT (34.775162 32.013642),POINT (178891.30744193023 657904.4447113065),[657904.4447113065 178891.30744193023],657904.4447113065,178891.30744193023,0.0,-Infinity,false
911,39875,המלכים/יצחק שדה,רחוב: המלכים 8 עיר: רעננה רציף:  קומה:,32.182551,34.860937,0,,39875,POINT (34.860937 32.182551),POINT (187055.10216144964 676605.8727529867),[676605.8727529867 187055.10216144964],676605.8727529867,187055.10216144964,1.242211578680094E-4,-8.99344704976877,false
912,39876,הנשיאים/וינגייט,רחוב: הנשיאים 9 עיר: רעננה רציף:  קומה:,32.184962,34.861692,0,,39876,POINT (34.861692 32.184962),POINT (187127.15611817245 676873.0062300889),[676873.0062300889 187127.15611817245],676873.0062300889,187127.15611817245,1.202420979883158E-4,-9.026003364332489,false
913,39877,הנשיאים/וינגייט,רחוב: הנשיאים 15 עיר: רעננה רציף:  קומה:,32.185877,34.861952,0,,39877,POINT (34.861952 32.185877),POINT (187151.99846589458 676974.3943303534),[676974.3943303534 187151.99846589458],676974.3943303534,187151.99846589458,0.0,-Infinity,false
914,39879,החי''ל/חפץ חיים,רחוב: החי''ל 30 עיר: רעננה רציף:  קומה:,32.185321,34.86754,0,,39879,POINT (34.86754 32.185321),POINT (187678.77429685602 676911.0737894508),[676911.0737894508 187678.77429685602],676911.0737894508,187678.77429685602,8.634946066892333E-5,-9.357107999263434,false
915,39880,חפץ חיים/החי''ל,רחוב: חפץ חיים 17 עיר: רעננה רציף:  קומה:,32.184593,34.867791,0,,39880,POINT (34.867791 32.184593),POINT (187702.1919475093 676830.270286267),[676830.270286267 187702.1919475093],676830.270286267,187702.1919475093,2.3185346218384368E-4,-8.36940501437721,false
917,39882,אלי כהן/חפץ חיים,רחוב: חפץ חיים 35 עיר: רעננה רציף:  קומה:,32.1865,34.868377,0,,39882,POINT (34.868377 32.1865),POINT (187758.11552023835 677041.568505813),[677041.568505813 187758.11552023835],677041.568505813,187758.11552023835,2.1498639068533934E-6,-13.050106016966135,false
918,39883,קרן היסוד/גולומב,רחוב: קרן היסוד 14 עיר: רעננה רציף:  קומה:,32.183549,34.871097,0,,39883,POINT (34.871097 32.183549),POINT (188013.60539471323 676713.5279004934),[676713.5279004934 188013.60539471323],676713.5279004934,188013.60539471323,8.99090592762631E-4,-7.014126757977198,false
919,39884,קרן היסוד/גולומב,רחוב: קרן היסוד 9 עיר: רעננה רציף:  קומה:,32.182967,34.870675,0,,39884,POINT (34.870675 32.182967),POINT (187973.60794518056 676649.1122119749),[676649.1122119749 187973.60794518056],676649.1122119749,187973.60794518056,3.5026541794811556E-4,-7.956819353878413,false
920,39885,בורוכוב/הנגב,רחוב: בורוכוב 12 עיר: רעננה רציף:  קומה:,32.181409,34.876502,0,,39885,POINT (34.876502 32.181409),POINT (188522.60597122624 676474.6520975017),[676474.6520975017 188522.60597122624],676474.6520975017,188522.60597122624,8.754000083723651E-5,-9.34341471663748,false
921,39886,בורוכוב/החשמונאים,רחוב: בורוכוב 44 עיר: רעננה רציף:  קומה:,32.185425,34.877762,0,,39886,POINT (34.877762 32.185425),POINT (188642.78710728296 676919.6324474612),[676919.6324474612 188642.78710728296],676919.6324474612,188642.78710728296,1.3437578593536272E-5,-11.217455403272194,false
922,39887,ההסתדרות/בורוכוב,רחוב: ההסתדרות 1 עיר: רעננה רציף:  קומה:,32.185942,34.877544,0,,39887,POINT (34.877544 32.185942),POINT (188622.40308865978 676977.0260657665),[676977.0260657665 188622.40308865978],676977.0260657665,188622.40308865978,3.853702208831849E-5,-10.163891166040228,false
924,39889,ההסתדרות/בר אילן,רחוב: ההסתדרות 26 עיר: רעננה רציף:  קומה:,32.186606,34.874965,0,,39889,POINT (34.874965 32.186606),POINT (188379.41978026225 677051.4005704289),[677051.4005704289 188379.41978026225],677051.4005704289,188379.41978026225,1.0089339836259858E-4,-9.201446060271463,false
925,39890,ההסתדרות/קרן היסוד,רחוב: ההסתדרות 29 עיר: רעננה רציף:  קומה:,32.186981,34.872855,0,,39890,POINT (34.872855 32.186981),POINT (188180.56889892626 677093.5966654995),[677093.5966654995 188180.56889892626],677093.5966654995,188180.56889892626,6.642573868748886E-4,-7.316840852761588,false
926,39891,בורוכוב/ההגנה,רחוב: בורוכוב 64 עיר: רעננה רציף:  קומה:,32.187434,34.878435,0,,39891,POINT (34.878435 32.187434),POINT (188706.92914033274 677142.2218299402),[677142.2218299402 188706.92914033274],677142.2218299402,188706.92914033274,1.6797231681572482E-4,-8.691711372997654,false
927,39892,בורוכוב/הפלמ''ח,רחוב: בורוכוב 83 עיר: רעננה רציף:  קומה:,32.190853,34.878208,0,,39892,POINT (34.878208 32.190853),POINT (188686.6728544213 677521.4265802852),[677521.4265802852 188686.6728544213],677521.4265802852,188686.6728544213,3.2624720885594333E-4,-8.027855154594793,false
928,39893,תיכון מטרו-ווסט/הפלמ''ח,רחוב: הפלמ''ח עיר: רעננה רציף:  קומה:,32.190606,34.876231,0,,39893,POINT (34.876231 32.190606),POINT (188500.1611105884 677494.6035861534),[677494.6035861534 188500.1611105884],677494.6035861534,188500.1611105884,2.604574976709824E-5,-10.555655959809679,false
929,39894,תיכון מטרו-ווסט/בורוכוב,רחוב: בורוכוב 86 עיר: רעננה רציף:  קומה:,32.189883,34.878353,0,,39894,POINT (34.878353 32.189883),POINT (188700.0199278942 677413.819820574),[677413.819820574 188700.0199278942],677413.819820574,188700.0199278942,7.669732788885475E-5,-9.475643688674408,false
930,39895,בורוכוב/ברל כצנלסון,רחוב: בורוכוב 96 עיר: רעננה רציף:  קומה:,32.191584,34.878189,0,,39895,POINT (34.878189 32.191584),POINT (188685.12714589958 677602.4941127541),[677602.4941127541 188685.12714589958],677602.4941127541,188685.12714589958,4.238140063616713E-4,-7.7662158632149625,false
931,39896,בורוכוב/וייצמן,רחוב: וייצמן 71 עיר: רעננה רציף:  קומה:,32.192385,34.878513,0,,39896,POINT (34.878513 32.192385),POINT (188715.948868898 677691.226003947),[677691.226003947 188715.948868898],677691.226003947,188715.948868898,0.0031800013647858972,-5.750873653012189,true
932,39897,בורוכוב/וייצמן,רחוב: וייצמן 60 עיר: רעננה רציף:  קומה:,32.192594,34.877273,0,,39897,POINT (34.877273 32.192594),POINT (188599.09121264136 677714.7575732083),[677714.7575732083 188599.09121264136],677714.7575732083,188599.09121264136,0.002624183933313435,-5.942985313819809,true
933,39898,ויצמן/קרן היסוד,רחוב: וייצמן 93 עיר: רעננה רציף:  קומה:,32.19232,34.875196,0,,39898,POINT (34.875196 32.19232),POINT (188403.14390286792 677684.9709923506),[677684.9709923506 188403.14390286792],677684.9709923506,188403.14390286792,0.002223344968373747,-6.108742474584797,true
934,39899,קרן היסוד/וייצמן,רחוב: קרן היסוד 75 עיר: רעננה רציף:  קומה:,32.191924,34.874179,0,,39899,POINT (34.874179 32.191924),POINT (188307.10897012646 677641.3518387716),[677641.3518387716 188307.10897012646],677641.3518387716,188307.10897012646,4.254103558759576E-4,-7.762456311639348,false
935,39900,שדרות וייצמן/החרושת,רחוב: וייצמן 20 עיר: רעננה רציף:  קומה:,32.192441,34.880435,0,,39900,POINT (34.880435 32.192441),POINT (188897.20624800771 677696.888183689),[677696.888183689 188897.20624800771],677696.888183689,188897.20624800771,0.003110759561094499,-5.772888350747558,true
937,39902,עקיבא/האלה,רחוב: עקיבא 88 עיר: רעננה רציף:  קומה:,32.188874,34.883296,0,,39902,POINT (34.883296 32.188874),POINT (189165.80811875671 677300.5269298704),[677300.5269298704 189165.80811875671],677300.5269298704,189165.80811875671,1.284015953293935E-4,-8.960347742101849,false
938,39903,עקיבא/הירדן,רחוב: עקיבא 97 עיר: רעננה רציף:  קומה:,32.188917,34.883046,0,,39903,POINT (34.883046 32.188917),POINT (189142.24724147306 677305.3657219588),[677305.3657219588 189142.24724147306],677305.3657219588,189142.24724147306,3.3887941010601685E-5,-10.292451329263221,false
940,39905,בית המילניום/התדהר,רחוב: התדהר 2 עיר: רעננה רציף:  קומה:,32.192173,34.883956,0,,39905,POINT (34.883956 32.192173),POINT (189229.13685016497 677666.1740186778),[677666.1740186778 189229.13685016497],677666.1740186778,189229.13685016497,3.959807382230011E-4,-7.834144988743805,false
942,39907,התדהר/התעשיה,רחוב: התדהר 15 עיר: רעננה רציף:  קומה:,32.196211,34.88436,0,,39907,POINT (34.88436 32.196211),POINT (189268.56598415904 678113.8427695106),[678113.8427695106 189268.56598415904],678113.8427695106,189268.56598415904,0.0014354044833731197,-6.546308599541998,true
943,39908,התדהר/התעשייה,רחוב: התדהר עיר: רעננה רציף:  קומה:,32.197342,34.884461,0,,39908,POINT (34.884461 32.197342),POINT (189278.46286795815 678239.2334164521),[678239.2334164521 189278.46286795815],678239.2334164521,189278.46286795815,6.195107471404249E-5,-9.689165601951746,false
945,39910,התעשייה/זרחין,רחוב: התעשייה 2 עיר: רעננה רציף:  קומה:,32.196839,34.883406,0,,39910,POINT (34.883406 32.196839),POINT (189178.81846923503 678183.751248458),[678183.751248458 189178.81846923503],678183.751248458,189178.81846923503,6.334686578924643E-5,-9.666885126939635,false
946,39911,החרושת/המסגר,רחוב: החרושת 12 עיר: רעננה רציף:  קומה:,32.194992,34.880654,0,,39911,POINT (34.880654 32.194992),POINT (188918.7091802674 677979.7117016001),[677979.7117016001 188918.7091802674],677979.7117016001,188918.7091802674,0.0,-Infinity,false
947,39912,החרושת/המסגר,רחוב: החרושת 19 עיר: רעננה רציף:  קומה:,32.195385,34.880484,0,,39912,POINT (34.880484 32.195385),POINT (188902.81048197474 678023.3405938636),[678023.3405938636 188902.81048197474],678023.3405938636,188902.81048197474,3.05957690205919E-4,-8.092063732872615,false
948,39913,החרושת/ויצמן,רחוב: החרושת 5 עיר: רעננה רציף:  קומה:,32.193588,34.880767,0,,39913,POINT (34.880767 32.193588),POINT (188928.89570873952 677823.9871060498),[677823.9871060498 188928.89570873952],677823.9871060498,188928.89570873952,5.338437039427638E-4,-7.535407451091697,false
949,39914,החרושת/ויצמן,רחוב: החרושת 6 עיר: רעננה רציף:  קומה:,32.19311,34.880992,0,,39914,POINT (34.880992 32.19311),POINT (188949.9527708428 677770.9168399298),[677770.9168399298 188949.9527708428],677770.9168399298,188949.9527708428,3.3967363795800486E-4,-7.987525289700728,false
950,39915,קניון רננים,רחוב: התעשייה 20 עיר: רעננה רציף:  קומה:,32.196602,34.879661,0,,39915,POINT (34.879661 32.196602),POINT (188825.61436779486 678158.5304623645),[678158.5304623645 188825.61436779486],678158.5304623645,188825.61436779486,9.30525480326728E-5,-9.282346191772453,false
952,39917,הסדנא/התעשייה,רחוב: הסדנא 3 עיר: רעננה רציף:  קומה:,32.195985,34.878688,0,,39917,POINT (34.878688 32.195985),POINT (188733.66038543297 678090.3875909286),[678090.3875909286 188733.66038543297],678090.3875909286,188733.66038543297,4.380891976501258E-5,-10.035673113712205,false
953,39918,קאנטרי/הסדנא,רחוב:   עיר: רעננה רציף:  קומה:,32.193914,34.878379,0,,39918,POINT (34.878379 32.193914),POINT (188703.8272798582 677860.818326141),[677860.818326141 188703.8272798582],677860.818326141,188703.8272798582,1.3419234094191683E-5,-11.218821500017238,false
954,39919,אסתר המלכה/עתידים,רחוב: אסתר המלכה 3 עיר: רעננה רציף:  קומה:,32.197303,34.875598,0,,39919,POINT (34.875598 32.197303),POINT (188442.74143037671 678237.4304978743),[678237.4304978743 188442.74143037671],678237.4304978743,188442.74143037671,9.974176869057807E-5,-9.212926024991914,false
955,39920,דב הוז/יוחנן בן זכאי,רחוב: דב הוז 25 עיר: רעננה רציף:  קומה:,32.195644,34.873984,0,,39920,POINT (34.873984 32.195644),POINT (188289.98888094682 678053.9270442099),[678053.9270442099 188289.98888094682],678053.9270442099,188289.98888094682,9.106554909052855E-6,-11.606516084071036,false
956,39921,דב הוז/סעדיה גאון,רחוב: דב הוז 9 עיר: רעננה רציף:  קומה:,32.193519,34.873504,0,,39921,POINT (34.873504 32.193519),POINT (188244.00262278758 677818.4204629628),[677818.4204629628 188244.00262278758],677818.4204629628,188244.00262278758,6.41176379843438E-5,-9.654791068325894,false
957,39922,שדרות וייצמן/יפה ירקוני,רחוב: וייצמן 104 עיר: רעננה רציף:  קומה:,32.192576,34.871885,0,,39922,POINT (34.871885 32.192576),POINT (188091.0143279377 677714.3202442953),[677714.3202442953 188091.0143279377],677714.3202442953,188091.0143279377,0.0010024080168156407,-6.905350156793047,true
958,39923,וייצמן/קרן היסוד,רחוב: וייצמן עיר: רעננה רציף:  קומה:,32.192327,34.873682,0,,39923,POINT (34.873682 32.192327),POINT (188260.38063271393 677686.185415697),[677686.185415697 188260.38063271393],677686.185415697,188260.38063271393,4.439012498659507E-4,-7.719908430480691,false
959,39924,מקלט/שמואל הנגיד,רחוב: שמואל הנגיד 31 עיר: רעננה רציף:  קומה:,32.191118,34.871376,0,,39924,POINT (34.871376 32.191118),POINT (188042.51645201704 677552.7881234841),[677552.7881234841 188042.51645201704],677552.7881234841,188042.51645201704,1.6492019519465285E-4,-8.710048866554526,false
960,39925,איזי שפירא/שבזי,רחוב: שבזי 4 עיר: רעננה רציף:  קומה:,32.190079,34.869461,0,,39925,POINT (34.869461 32.190079),POINT (187861.5763497765 677438.1322146194),[677438.1322146194 187861.5763497765],677438.1322146194,187861.5763497765,1.50278304755739E-5,-11.105606710887518,false
961,39927,קרן היסוד/הקוממיות,רחוב: קרן היסוד 61 עיר: רעננה רציף:  קומה:,32.189581,34.873036,0,,39927,POINT (34.873036 32.189581),POINT (188198.52622949734 677381.8633372195),[677381.8633372195 188198.52622949734],677381.8633372195,188198.52622949734,3.9737255013598153E-4,-7.830636303870949,false
962,39928,קרן היסוד/ההסתדרות,רחוב: קרן היסוד 47 עיר: רעננה רציף:  קומה:,32.187037,34.871954,0,,39928,POINT (34.871954 32.187037),POINT (188095.62153465062 677100.0689677626),[677100.0689677626 188095.62153465062],677100.0689677626,188095.62153465062,3.9111920537010124E-4,-7.846498171373947,false
963,39929,מרכז לקשיש/מרדכי אנילביץ',רחוב: מרדכי אנילביץ' 33 עיר: רעננה רציף:  קומה:,32.188582,34.868288,0,,39929,POINT (34.868288 32.188582),POINT (187750.4442726101 677272.4719746077),[677272.4719746077 187750.4442726101],677272.4719746077,187750.4442726101,1.654690644259101E-5,-11.009311395511101,false
964,39930,מגדל/ההגנה,רחוב: ההגנה 99 עיר: רעננה רציף:  קומה:,32.189084,34.866327,0,,39930,POINT (34.866327 32.189084),POINT (187565.6952775285 677328.7195718458),[677328.7195718458 187565.6952775285],677328.7195718458,187565.6952775285,3.890450048963477E-4,-7.851815527216897,false
965,39931,המחתרות/שפינוזה,רחוב: המחתרות 3 עיר: רעננה רציף:  קומה:,32.189625,34.864841,0,,39931,POINT (34.864841 32.189625),POINT (187425.75439100008 677389.1537833735),[677389.1537833735 187425.75439100008],677389.1537833735,187425.75439100008,1.4773094207725765E-4,-8.82011789763046,false
966,39932,גולדה מאיר/משה שרת,רחוב: גולדה מאיר עיר: רמלה רציף:  קומה:,31.934081,34.854318,0,,39932,POINT (34.854318 31.934081),POINT (186341.4962210755 649055.0830852821),[649055.0830852821 186341.4962210755],649055.0830852821,186341.4962210755,3.143258021650704E-4,-8.065080523463882,false
970,39936,יוספטל/מבצע סיני,רחוב: יוספטל 109 עיר: בת ים רציף:  קומה:,32.015793,34.758836,0,,39936,POINT (34.758836 32.015793),POINT (177349.789171032 658149.2125794637),[658149.2125794637 177349.789171032],658149.2125794637,177349.789171032,4.5213392270520285E-6,-12.306702318834299,false
971,39937,רוז'נסקי/דוד רזיאל,רחוב: רוז'נסקי 10 עיר: ראשון לציון רציף:  קומה:,31.987031,34.770425,0,,39937,POINT (34.770425 31.987031),POINT (178431.90211633925 654955.3564035142),[654955.3564035142 178431.90211633925],654955.3564035142,178431.90211633925,3.706535696435138E-6,-12.505412892129753,false
972,39938,רוז'נסקי/דוד רזיאל,רחוב: רוז'נסקי 5 עיר: ראשון לציון רציף:  קומה:,31.986975,34.770778,0,,39938,POINT (34.770778 31.986975),POINT (178465.238744771 654949.0127745477),[654949.0127745477 178465.238744771],654949.0127745477,178465.238744771,6.984369525557619E-6,-11.871835830523464,false
975,39941,מסוף קניון הזהב,רחוב:   עיר: ראשון לציון רציף:  קומה:,31.989247,34.774727,1,,39941,POINT (34.774727 31.989247),POINT (178839.45447846464 655199.4629621892),[655199.4629621892 178839.45447846464],655199.4629621892,178839.45447846464,0.0,-Infinity,false
976,39942,אברהם בר/רוז'נסקי,רחוב: אברהם בר 24 עיר: ראשון לציון רציף:  קומה:,31.985865,34.774205,0,,39942,POINT (34.774205 31.985865),POINT (178788.63013887472 654824.6322292545),[654824.6322292545 178788.63013887472],654824.6322292545,178788.63013887472,0.0,-Infinity,false
977,39943,דוד סחרוב/אברהם בר,רחוב: דוד סחרוב 28 עיר: ראשון לציון רציף:  קומה:,31.989251,34.774917,0,,39943,POINT (34.774917 31.989251),POINT (178857.41243543845 655199.8351784686),[655199.8351784686 178857.41243543845],655199.8351784686,178857.41243543845,2.0019458852488857E-4,-8.516220721793692,false
978,39944,המרכז הישראלי לריהוט/אברהם בר,רחוב: אברהם בר עיר: ראשון לציון רציף:  קומה:,31.98672,34.774421,0,,39944,POINT (34.774421 31.98672),POINT (178809.42124934398 654919.3611849591),[654919.3611849591 178809.42124934398],654919.3611849591,178809.42124934398,1.48792055543981E-6,-13.418131013140098,false
981,39948,שדרות וייצמן/דרך ירושלים,רחוב: וייצמן 213 עיר: רעננה רציף:  קומה:,32.192725,34.856196,0,,39948,POINT (34.856196 32.192725),POINT (186611.64566480974 677735.526929471),[677735.526929471 186611.64566480974],677735.526929471,186611.64566480974,4.107772454845673E-4,-7.797459472182633,false
983,39950,אלימלך רימלט/הגלבוע,רחוב: אלימלך רימלט 18 עיר: רעננה רציף:  קומה:,32.195512,34.849866,0,,39950,POINT (34.849866 32.195512),POINT (186015.76695085492 678046.5344923763),[678046.5344923763 186015.76695085492],678046.5344923763,186015.76695085492,2.0564929002183236E-7,-15.39709359463756,false
984,39951,מגרש טניס/יאיר שטרן,רחוב: יאיר שטרן 5 עיר: רעננה רציף:  קומה:,32.194755,34.847869,0,,39951,POINT (34.847869 32.194755),POINT (185827.1837874651 677963.211813682),[677963.211813682 185827.1837874651],677963.211813682,185827.1837874651,1.335571594422256E-4,-8.920981011142649,false
985,39952,ספורטק/שדרות וייצמן,רחוב: וייצמן 148 עיר: רעננה רציף:  קומה:,32.19256,34.862538,0,,39952,POINT (34.862538 32.19256),POINT (187209.61681123285 677715.3104063044),[677715.3104063044 187209.61681123285],677715.3104063044,187209.61681123285,6.677216896026991E-4,-7.311639103574281,false
986,39953,ספורטק/שדרות וייצמן,רחוב: וייצמן 175 עיר: רעננה רציף:  קומה:,32.192364,34.863985,0,,39953,POINT (34.863985 32.192364),POINT (187345.99545810162 677693.1425730677),[677693.1425730677 187345.99545810162],677693.1425730677,187345.99545810162,4.799860844593516E-4,-7.64175344519226,false
987,39954,שדרות וייצמן/מגדל,רחוב: וייצמן עיר: רעננה רציף:  קומה:,32.192458,34.866262,0,,39954,POINT (34.866262 32.192458),POINT (187560.74249854017 677702.8888300334),[677702.8888300334 187560.74249854017],677702.8888300334,187560.74249854017,7.934556344451583E-4,-7.139112930783134,false
988,39955,מרכז אליאב/שברץ,רחוב: שברץ 4 עיר: רעננה רציף:  קומה:,32.179515,34.881524,0,,39955,POINT (34.881524 32.179515),POINT (188995.59132470665 676263.1898696944),[676263.1898696944 188995.59132470665],676263.1898696944,188995.59132470665,8.8418259920378E-4,-7.030846956471977,false
991,39958,בית ספר דקל/שברץ,רחוב: שברץ 31 עיר: רעננה רציף:  קומה:,32.182834,34.882013,0,,39958,POINT (34.882013 32.182834),POINT (189042.81236180413 676631.1016214743),[676631.1016214743 189042.81236180413],676631.1016214743,189042.81236180413,4.1658213503451366E-4,-7.783426912835307,false
992,39959,אחוזה/בן גוריון,רחוב: בן גוריון 5 עיר: רעננה רציף:  קומה:,32.180347,34.87197,0,,39959,POINT (34.87197 32.180347),POINT (188094.83694003994 676358.197097332),[676358.197097332 188094.83694003994],676358.197097332,188094.83694003994,4.060126828494965E-4,-7.8091261603048965,false
994,39961,מסוף רעננה/הפנינה,רחוב: הפנינה 1 עיר: רעננה רציף:  קומה:,32.1754,34.889928,1,,39961,POINT (34.889928 32.1754),POINT (189786.8396037547 675804.5216719407),[675804.5216719407 189786.8396037547],675804.5216719407,189786.8396037547,5.415210466129046E-4,-7.521128625034026,false
995,39962,עקיבא/ציפמן,רחוב: עקיבא 44 עיר: רעננה רציף:  קומה:,32.185264,34.882351,0,,39962,POINT (34.882351 32.185264),POINT (189075.4950862626 676900.4734621),[676900.4734621 189075.4950862626],676900.4734621,189075.4950862626,4.316218556497297E-4,-7.74796068719295,false
996,39963,בן גוריון/אוסטרובסקי,רחוב: בן גוריון 13 עיר: רעננה רציף:  קומה:,32.179055,34.870855,0,,39963,POINT (34.870855 32.179055),POINT (187989.23765439977 676215.2503639738),[676215.2503639738 187989.23765439977],676215.2503639738,187989.23765439977,2.575864234837626E-4,-8.264155268990354,false
997,39964,עקיבא/אח''י דקר,רחוב: עקיבא 72 עיר: רעננה רציף:  קומה:,32.186686,34.882682,0,,39964,POINT (34.882682 32.186686),POINT (189107.18160038386 677058.0683693312),[677058.0683693312 189107.18160038386],677058.0683693312,189107.18160038386,2.1523339367252514E-4,-8.443787566656846,false
1001,39968,בלום/גאולה,רחוב: גאולה 32 עיר: כפר סבא רציף:  קומה:,32.172734,34.899095,0,,39968,POINT (34.899095 32.172734),POINT (190650.58019752946 675506.3934571733),[675506.3934571733 190650.58019752946],675506.3934571733,190650.58019752946,0.0,-Infinity,false
1002,39969,זאב גלר/מעלה האורנים,רחוב: זאב גלר עיר: כפר סבא רציף:  קומה:,32.173658,34.896364,0,,39969,POINT (34.896364 32.173658),POINT (190393.2936416435 675609.5917364664),[675609.5917364664 190393.2936416435],675609.5917364664,190393.2936416435,0.0,-Infinity,false
1003,39970,בי''ס יגאל אלון/שד' ששת הימים,רחוב: שדרות ששת הימים 32 עיר: כפר סבא רציף:  קומה:,32.175701,34.896549,0,,39970,POINT (34.896549 32.175701),POINT (190411.39057082817 675836.0934941398),[675836.0934941398 190411.39057082817],675836.0934941398,190411.39057082817,3.295488507986028E-5,-10.320371050649397,false
1004,39971,אנצו סירני/הכובשים,רחוב: אנצו סירני 14 עיר: כפר סבא רציף:  קומה:,32.179395,34.893362,0,,39971,POINT (34.893362 32.179395),POINT (190111.99638271594 676246.5924179866),[676246.5924179866 190111.99638271594],676246.5924179866,190111.99638271594,0.0,-Infinity,false
1005,39972,אנצו סירני/קיבוץ גלויות,רחוב: אנצו סירני 32 עיר: כפר סבא רציף:  קומה:,32.18057,34.891921,0,,39972,POINT (34.891921 32.18057),POINT (189976.47391089087 676377.2842480958),[676377.2842480958 189976.47391089087],676377.2842480958,189976.47391089087,0.0,-Infinity,false
1006,39973,אנצו סירני/חביבה רייק,רחוב: אנצו סירני 48 עיר: כפר סבא רציף:  קומה:,32.180391,34.89059,0,,39973,POINT (34.89059 32.180391),POINT (189850.89064732878 676357.8001301504),[676357.8001301504 189850.89064732878],676357.8001301504,189850.89064732878,0.0,-Infinity,false
1007,39974,מדרשית נעם/ד''ר משה סנה,רחוב: ד''ר משה סנה 15 עיר: כפר סבא רציף:  קומה:,32.185015,34.896572,0,,39974,POINT (34.896572 32.185015),POINT (190416.51627368393 676868.9333661782),[676868.9333661782 190416.51627368393],676868.9333661782,190416.51627368393,1.7316542752474382E-4,-8.661263191894967,false
1020,39987,הגיבור/שחר,רחוב: הגיבור 16 עיר: הוד השרון רציף:  קומה:,32.150048,34.891951,0,,39987,POINT (34.891951 32.150048),POINT (189969.47353128574 672992.6443809633),[672992.6443809633 189969.47353128574],672992.6443809633,189969.47353128574,0.0032097652229850834,-5.741557483772001,true
1021,39988,הגיבור/המעלה,רחוב: הגיבור 3 עיר: הוד השרון רציף:  קומה:,32.14996,34.894013,0,,39988,POINT (34.894013 32.14996),POINT (190163.97547803688 672982.3230972178),[672982.3230972178 190163.97547803688],672982.3230972178,190163.97547803688,2.2169739494502168E-4,-8.414197191771795,false
1024,39991,הציונות/היהלום,רחוב: הציונות 1 עיר: הוד השרון רציף:  קומה:,32.146603,34.88578,0,,39991,POINT (34.88578 32.146603),POINT (189386.16743811397 672612.3306655099),[672612.3306655099 189386.16743811397],672612.3306655099,189386.16743811397,4.0471556906492085E-5,-10.114911129184105,false
1025,39992,הציונות/היהלום,רחוב: הציונות 5 עיר: הוד השרון רציף:  קומה:,32.146251,34.885713,0,,39992,POINT (34.885713 32.146251),POINT (189379.73082210004 672573.3156611477),[672573.3156611477 189379.73082210004],672573.3156611477,189379.73082210004,3.134647873548981E-4,-8.067823525236786,false
1026,39993,ז'בוטינסקי/הדסים,רחוב: ז'בוטינסקי 85 עיר: הוד השרון רציף:  קומה:,32.143359,34.883087,0,,39993,POINT (34.883087 32.143359),POINT (189131.0251018559 672253.3547438285),[672253.3547438285 189131.0251018559],672253.3547438285,189131.0251018559,3.1635863398700985E-4,-8.058634070229164,false
1027,39994,ז'בוטינסקי/האשל,רחוב: ז'בוטינסקי 105 עיר: הוד השרון רציף:  קומה:,32.143206,34.879323,0,,39994,POINT (34.879323 32.143206),POINT (188775.85016251373 672237.4545470673),[672237.4545470673 188775.85016251373],672237.4545470673,188775.85016251373,8.94727883293499E-6,-11.6241611129202,false
12812,20902,שד' ישראל גורי/דרך קיבוץ גלויות,רחוב: שדרות ישראל גורי 64 עיר: תל אביב יפו רציף:  קומה:,32.046386,34.780691,0,,20902,POINT (34.780691 32.046386),POINT (179427.9393455194 661533.3579924017),[661533.3579924017 179427.9393455194],661533.3579924017,179427.9393455194,2.9848158962963376E-4,-8.11680230331631,false
12814,21000,ביה''ח איכילוב/שד' דוד המלך,רחוב: שדרות דוד המלך 40 עיר: תל אביב יפו רציף:  קומה:,32.079787,34.787792,0,,21000,POINT (34.787792 32.079787),POINT (180112.91245700192 665234.5951614812),[665234.5951614812 180112.91245700192],665234.5951614812,180112.91245700192,1.9954124619126333E-4,-8.51948959517786,false
12815,21001,אלוף שדה/דרך יצחק רבין,רחוב: אלוף שדה עיר: רמת גן רציף:  קומה:,32.059607,34.820239,0,,21001,POINT (34.820239 32.059607),POINT (183168.3682260649 662985.457336776),[662985.457336776 183168.3682260649],662985.457336776,183168.3682260649,0.003159261422985599,-5.757417005604998,true
12816,21002,אלוף שדה/דרך יצחק רבין,רחוב: אלוף שדה עיר: רמת גן רציף:  קומה:,32.059689,34.822156,0,,21002,POINT (34.822156 32.059689),POINT (183349.4300995469 662993.9074541007),[662993.9074541007 183349.4300995469],662993.9074541007,183349.4300995469,0.005199289374205145,-5.2592333215401235,true
12818,21004,אלוף שדה/כורזין,רחוב: אלוף שדה עיר: רמת גן רציף:  קומה:,32.058774,34.817616,0,,21004,POINT (34.817616 32.058774),POINT (182920.33715770996 662893.9707409871),[662893.9707409871 182920.33715770996],662893.9707409871,182920.33715770996,5.798829854407904E-4,-7.452684224017942,false
12819,21005,ארלוזורוב/דיזנגוף,רחוב: ארלוזורוב 19 עיר: תל אביב יפו רציף:  קומה:,32.087073,34.774385,0,,21005,POINT (34.774385 32.087073),POINT (178850.33502410134 666047.5134382356),[666047.5134382356 178850.33502410134],666047.5134382356,178850.33502410134,4.4255591714125535E-5,-10.025528828072984,false
12821,21011,גן רבקה/משמר הירדן,רחוב: משמר הירדן עיר: גבעתיים רציף:  קומה:,32.062099,34.813186,0,,21011,POINT (34.813186 32.062099),POINT (182503.32809602428 663264.1884349504),[663264.1884349504 182503.32809602428],663264.1884349504,182503.32809602428,5.887125311909045E-7,-14.34532783493031,false
12822,21015,ההסתדרות/כ''ג,רחוב: ההסתדרות 17 עיר: גבעתיים רציף:  קומה:,32.063201,34.811192,0,,21015,POINT (34.811192 32.063201),POINT (182315.4773659781 663387.0738354801),[663387.0738354801 182315.4773659781],663387.0738354801,182315.4773659781,1.6656298156310842E-4,-8.70013705242265,false
12823,21022,ת. רכבת השלום,רחוב: גבעת התחמושת עיר: תל אביב יפו רציף:  קומה:,32.073483,34.791645,0,,21022,POINT (34.791645 32.073483),POINT (180474.01161197724 664534.1425566863),[664534.1425566863 180474.01161197724],664534.1425566863,180474.01161197724,0.007036066001571838,-4.95670607159769,true
12824,21023,ת. רכבת השלום,רחוב: גבעת התחמושת עיר: תל אביב יפו רציף:  קומה:,32.072666,34.79339,0,,21023,POINT (34.79339 32.072666),POINT (180638.4288294462 664442.9159316918),[664442.9159316918 180638.4288294462],664442.9159316918,180638.4288294462,0.0018812645483090129,-6.275811096176585,true
12825,21024,לאונרדו דה וינצ'י/קפלן,רחוב: ליאונרדו דה וינצ'י 11 עיר: תל אביב יפו רציף:  קומה:,32.073875,34.784808,0,,21024,POINT (34.784808 32.073875),POINT (179828.63290880696 664580.1022439094),[664580.1022439094 179828.63290880696],664580.1022439094,179828.63290880696,2.9314613500502695E-4,-8.134839319000415,false
12826,21025,ויצמן/ז'בוטינסקי,רחוב: וייצמן 24 עיר: גבעתיים רציף:  קומה:,32.073194,34.808561,0,,21025,POINT (34.808561 32.073194),POINT (182071.0973608254 664496.1088417048),[664496.1088417048 182071.0973608254],664496.1088417048,182071.0973608254,1.8020721607328477E-4,-8.621403168790007,false
12827,21028,דרך השלום/יגאל אלון,רחוב: דרך השלום 8 עיר: תל אביב יפו רציף:  קומה:,32.071995,34.795651,0,,21028,POINT (34.795651 32.071995),POINT (180851.63175093642 664367.6972735389),[664367.6972735389 180851.63175093642],664367.6972735389,180851.63175093642,1.337323584491725E-4,-8.919670080333095,false
12828,21030,דרך השלום/דרך יצחק רבין,רחוב: דרך השלום 75 עיר: תל אביב יפו רציף:  קומה:,32.065178,34.803052,0,,21030,POINT (34.803052 32.065178),POINT (181547.6309145294 663609.1340168818),[663609.1340168818 181547.6309145294],663609.1340168818,181547.6309145294,0.0011155053702445869,-6.7984477298992525,true
12829,21031,דרך השלום/דרך יצחק רבין,רחוב: דרך השלום 72 עיר: תל אביב יפו רציף:  קומה:,32.065604,34.802729,0,,21031,POINT (34.802729 32.065604),POINT (181517.3064706908 663656.4867731323),[663656.4867731323 181517.3064706908],663656.4867731323,181517.3064706908,7.792957071599799E-4,-7.157119985714584,false
12830,21032,דרך השלום/המאבק,רחוב: דרך השלום 143 עיר: תל אביב יפו רציף:  קומה:,32.059083,34.809867,0,,21032,POINT (34.809867 32.059083),POINT (182188.68772388445 662930.8849288288),[662930.8849288288 182188.68772388445],662930.8849288288,182188.68772388445,1.1572225612099427E-4,-9.06431758166725,false
12831,21033,דרך השלום/המאבק,רחוב: דרך השלום 122 עיר: תל אביב יפו רציף:  קומה:,32.05894,34.809636,0,,21033,POINT (34.809636 32.05894),POINT (182166.8153609507 662915.1074209354),[662915.1074209354 182166.8153609507],662915.1074209354,182166.8153609507,1.3105321495107328E-4,-8.939907096247977,false
12833,21035,ארלוזורוב/דרך נמיר,רחוב: ארלוזורוב 194 עיר: תל אביב יפו רציף:  קומה:,32.08276,34.793207,0,,21035,POINT (34.793207 32.08276),POINT (180625.41721127622 665562.3108894788),[665562.3108894788 180625.41721127622],665562.3108894788,180625.41721127622,7.401018688535184E-4,-7.208722720627549,false
12834,21038,הוועד הפועל/ארלוזורוב,רחוב: ארלוזורוב 95 עיר: תל אביב יפו רציף:  קומה:,32.08473,34.78481,0,,21038,POINT (34.78481 32.08473),POINT (179833.50471295434 665783.8191803358),[665783.8191803358 179833.50471295434],665783.8191803358,179833.50471295434,1.1361540537102557E-4,-9.082691450211081,false
12835,21039,מסוף כורזין,רחוב: כורזין עיר: גבעתיים רציף:  קומה:,32.060792,34.816446,0,,21039,POINT (34.816446 32.060792),POINT (182810.65306658356 663118.1435597558),[663118.1435597558 182810.65306658356],663118.1435597558,182810.65306658356,4.762476902802074E-4,-7.649572481340463,false
12836,21040,היכל ווהלין/כורזין,רחוב: כורזין 5 עיר: גבעתיים רציף:  קומה:,32.05996,34.816379,0,,21040,POINT (34.816379 32.05996),POINT (182803.99432092975 663025.9057463752),[663025.9057463752 182803.99432092975],663025.9057463752,182803.99432092975,6.368702827049077E-4,-7.358944560954999,false
12837,21041,אלוף שדה/הירדן,רחוב: אלוף שדה עיר: רמת גן רציף:  קומה:,32.058355,34.828604,0,,21041,POINT (34.828604 32.058355),POINT (183957.82364435372 662843.8414368744),[662843.8414368744 183957.82364435372],662843.8414368744,183957.82364435372,0.0013141309220812416,-6.634579727595989,true
12838,21042,אלוף שדה/הירדן,רחוב: אלוף שדה עיר: רמת גן רציף:  קומה:,32.059076,34.82732,0,,21042,POINT (34.82732 32.059076),POINT (183836.8483693509 662924.2161149795),[662924.2161149795 183836.8483693509],662924.2161149795,183836.8483693509,5.467472183694821E-4,-7.5115239859933025,false
12839,21043,ירקון/ויתקין,רחוב: הירקון 248 עיר: תל אביב יפו רציף:  קומה:,32.091854,34.773124,0,,21043,POINT (34.773124 32.091854),POINT (178733.40985671326 666578.1581292994),[666578.1581292994 178733.40985671326],666578.1581292994,178733.40985671326,3.513222958975797E-4,-7.953806533875856,false
12840,21044,המאבק/מנורה,רחוב: המאבק 36 עיר: גבעתיים רציף:  קומה:,32.063799,34.809773,0,,21044,POINT (34.809773 32.063799),POINT (182181.7234490944 663453.8753655006),[663453.8753655006 182181.7234490944],663453.8753655006,182181.7234490944,2.3185927200548856E-4,-8.369379956529032,false
12841,21068,ארלוזורוב/משה שרת,רחוב: ארלוזורוב 115 עיר: תל אביב יפו רציף:  קומה:,32.084075,34.787875,0,,21068,POINT (34.787875 32.084075),POINT (180122.5852732533 665710.0639842369),[665710.0639842369 180122.5852732533],665710.0639842369,180122.5852732533,4.2355098587488175E-4,-7.766836659442435,false
12843,21075,ויצמן/ז'בוטינסקי,רחוב: וייצמן 23 עיר: גבעתיים רציף:  קומה:,32.073859,34.80864,0,,21075,POINT (34.80864 32.073859),POINT (182078.82709054442 664569.8235708136),[664569.8235708136 182078.82709054442],664569.8235708136,182078.82709054442,2.1202932592604302E-4,-8.458785963019126,false
12844,21076,ויצמן/צה''ל,רחוב: וייצמן 37 עיר: גבעתיים רציף:  קומה:,32.07234,34.808682,0,,21076,POINT (34.808682 32.07234),POINT (182082.17476814546 664401.366555307),[664401.366555307 182082.17476814546],664401.366555307,182082.17476814546,1.915927741459072E-4,-8.56013840636463,false
12845,21077,ויצמן/ריינס,רחוב: וייצמן 66 עיר: גבעתיים רציף:  קומה:,32.068075,34.808458,0,,21077,POINT (34.808458 32.068075),POINT (182059.28865738478 663928.496962201),[663928.496962201 182059.28865738478],663928.496962201,182059.28865738478,6.003874310585412E-4,-7.41793539270367,false
12846,21078,בן יהודה/ז'בוטינסקי,רחוב: בן יהודה 163 עיר: תל אביב יפו רציף:  קומה:,32.088776,34.773552,0,,21078,POINT (34.773552 32.088776),POINT (178772.44953408855 666236.6744536255),[666236.6744536255 178772.44953408855],666236.6744536255,178772.44953408855,3.287008077976157E-4,-8.020362619744288,false
12847,21080,דרך השלום/תוצרת הארץ,רחוב: דרך השלום 15 עיר: תל אביב יפו רציף:  קומה:,32.071565,34.797751,0,,21080,POINT (34.797751 32.071565),POINT (181049.73658363466 664319.2649964793),[664319.2649964793 181049.73658363466],664319.2649964793,181049.73658363466,0.003391392502370786,-5.686514674270719,true
12848,21089,הירקון/ירמיהו,רחוב: הירקון 288 עיר: תל אביב יפו רציף:  קומה:,32.095145,34.774308,0,,21089,POINT (34.774308 32.095145),POINT (178846.63644424017 666942.6537047493),[666942.6537047493 178846.63644424017],666942.6537047493,178846.63644424017,4.997272966814967E-4,-7.601448014967391,false
12849,21090,בן יהודה/ירמיהו,רחוב: בן יהודה 215 עיר: תל אביב יפו רציף:  קומה:,32.094109,34.775142,0,,21090,POINT (34.775142 32.094109),POINT (178924.90656342826 666827.4569019332),[666827.4569019332 178924.90656342826],666827.4569019332,178924.90656342826,2.1964549622538687E-7,-15.331250971058141,false
12851,21092,שד' לוי אשכול/דב האוזנר,רחוב: שדרות לוי אשכול 47 עיר: תל אביב יפו רציף:  קומה:,32.109944,34.788905,0,,21092,POINT (34.788905 32.109944),POINT (180230.88314830023 668578.3256162172),[668578.3256162172 180230.88314830023],668578.3256162172,180230.88314830023,1.4454665743379982E-4,-8.841908213713939,false
12852,21093,כצנלסון/לכיש,רחוב: כצנלסון 15 עיר: גבעתיים רציף:  קומה:,32.075356,34.803222,0,,21093,POINT (34.803222 32.075356),POINT (181567.8809128781 664737.7162906488),[664737.7162906488 181567.8809128781],664737.7162906488,181567.8809128781,6.50320398063493E-4,-7.338045396422114,false
12854,21095,כצנלסון/עליית הנוער,רחוב: כצנלסון 14 עיר: גבעתיים רציף:  קומה:,32.075186,34.803357,0,,21095,POINT (34.803357 32.075186),POINT (181580.55721709025 664718.8175164029),[664718.8175164029 181580.55721709025],664718.8175164029,181580.55721709025,3.539743892871364E-5,-10.248871087088197,false
12855,21096,כצנלסון/קק''ל,רחוב: כצנלסון 53 עיר: גבעתיים רציף:  קומה:,32.075287,34.806944,0,,21096,POINT (34.806944 32.075287),POINT (181919.27551747265 664728.7638540608),[664728.7638540608 181919.27551747265],664728.7638540608,181919.27551747265,4.887878724317671E-4,-7.623581961315324,false
12858,21100,לונדון מיניסטור/שד' שאול המלך,רחוב: שדרות שאול המלך 4 עיר: תל אביב יפו רציף:  קומה:,32.075465,34.78282,0,,21100,POINT (34.78282 32.075465),POINT (179641.61631858815 664757.150095754),[664757.150095754 179641.61631858815],664757.150095754,179641.61631858815,9.229216872433456E-4,-6.9879661729512375,false
12862,21104,הירקון/ארלוזורוב,רחוב: הירקון 194 עיר: תל אביב יפו רציף:  קומה:,32.087939,34.771282,0,,21104,POINT (34.771282 32.087939),POINT (178557.77938504057 666144.7173526355),[666144.7173526355 178557.77938504057],666144.7173526355,178557.77938504057,2.8458505102852663E-4,-8.164478399940617,false
12865,21107,שד' לוי אשכול/אינשטיין,רחוב: שדרות לוי אשכול 53 עיר: תל אביב יפו רציף:  קומה:,32.111741,34.789253,0,,21107,POINT (34.789253 32.111741),POINT (180264.49588569306 668777.470409459),[668777.470409459 180264.49588569306],668777.470409459,180264.49588569306,8.278990495495957E-5,-9.39920442483983,false
12866,21108,המאבק/מנורה,רחוב: המאבק 9 עיר: גבעתיים רציף:  קומה:,32.06522,34.809093,0,,21108,POINT (34.809093 32.06522),POINT (182118.0886553204 663611.6854139776),[663611.6854139776 182118.0886553204],663611.6854139776,182118.0886553204,4.1917072573122995E-4,-7.777232261052342,false
12867,21109,מסוף אלוף שדה,רחוב:   עיר: רמת גן רציף:  קומה:,32.054928,34.833997,1,,21109,POINT (34.833997 32.054928),POINT (184465.80765353242 662462.0607906866),[662462.0607906866 184465.80765353242],662462.0607906866,184465.80765353242,0.0,-Infinity,false
12875,21118,בית העלמין/דרך השלום,רחוב: דרך השלום 25 עיר: תל אביב יפו רציף:  קומה:,32.070419,34.801417,0,,21118,POINT (34.801417 32.070419),POINT (181395.41165283427 664190.8856470396),[664190.8856470396 181395.41165283427],664190.8856470396,181395.41165283427,5.598440142162303E-4,-7.48785235907868,false
12876,21119,דרך השלום/שדרות ההשכלה,רחוב: דרך השלום 14 עיר: תל אביב יפו רציף:  קומה:,32.071418,34.797494,0,,21119,POINT (34.797494 32.071418),POINT (181025.40872806986 664303.0556114815),[664303.0556114815 181025.40872806986],664303.0556114815,181025.40872806986,9.783511186196186E-4,-6.929641935367162,false
12877,21120,גן רבקה/משמר הירדן,רחוב: משמר הירדן 5 עיר: גבעתיים רציף:  קומה:,32.06185,34.813749,0,,21120,POINT (34.813749 32.06185),POINT (182556.39295989944 663236.3841713192),[663236.3841713192 182556.39295989944],663236.3841713192,182556.39295989944,1.3103921915406664E-4,-8.940013896713756,false
12878,21123,עיריית תל אביב-יפו/אבן גבירול,רחוב: אבן גבירול 88 עיר: תל אביב יפו רציף:  קומה:,32.082493,34.781427,0,,21123,POINT (34.781427 32.082493),POINT (179513.14877612807 665537.0043796175),[665537.0043796175 179513.14877612807],665537.0043796175,179513.14877612807,1.0964634315445178E-4,-9.118250433821105,false
12879,21125,ערבי נחל/בורוכוב,רחוב: ערבי נחל 13 עיר: גבעתיים רציף:  קומה:,32.078281,34.801218,0,,21125,POINT (34.801218 32.078281),POINT (181379.88020673086 665062.7764364439),[665062.7764364439 181379.88020673086],665062.7764364439,181379.88020673086,0.001741663882847044,-6.352914368165983,true
12880,21126,ערבי נחל/בורוכוב,רחוב: ערבי נחל 20 עיר: תל אביב יפו רציף:  קומה:,32.078332,34.800753,0,,21126,POINT (34.800753 32.078332),POINT (181335.99851521986 665068.5960651123),[665068.5960651123 181335.99851521986],665068.5960651123,181335.99851521986,8.737020113437515E-4,-7.042771188564041,false
12881,21127,אבן גבירול/פרופ' שור,רחוב: אבן גבירול 154 עיר: תל אביב יפו רציף:  קומה:,32.089768,34.782735,0,,21127,POINT (34.782735 32.089768),POINT (179639.7923649221 666343.2510042385),[666343.2510042385 179639.7923649221],666343.2510042385,179639.7923649221,2.564681725197507E-4,-8.268505984796137,false
12884,21132,אלוף שדה/כביש 4,רחוב: אלוף שדה עיר: רמת גן רציף:  קומה:,32.057419,34.832771,0,,21132,POINT (34.832771 32.057419),POINT (184350.97716846986 662738.6856519096),[662738.6856519096 184350.97716846986],662738.6856519096,184350.97716846986,0.0034728840704435267,-5.662769886012424,true
12885,21133,דרך השלום/דרך הטייסים,רחוב: דרך השלום עיר: תל אביב יפו רציף:  קומה:,32.06176,34.804856,0,,21133,POINT (34.804856 32.06176),POINT (181716.57587480877 663229.4789934143),[663229.4789934143 181716.57587480877],663229.4789934143,181716.57587480877,4.187484438389058E-4,-7.778240191037501,false
12886,21134,דרך השלום/דרך הטייסים,רחוב: דרך השלום 98 עיר: תל אביב יפו רציף:  קומה:,32.062113,34.804298,0,,21134,POINT (34.804298 32.062113),POINT (181664.02812862396 663268.8184799993),[663268.8184799993 181664.02812862396],663268.8184799993,181664.02812862396,1.392902426822441E-4,-8.878950724985401,false
12887,21136,רבנות תל אביב/שד' דוד המלך,רחוב: שדרות דוד המלך 24 עיר: תל אביב יפו רציף:  קומה:,32.080036,34.784509,0,,21136,POINT (34.784509 32.080036),POINT (179803.06117424706 665263.4089628168),[665263.4089628168 179803.06117424706],665263.4089628168,179803.06117424706,5.4056805964347296E-5,-9.825475102021878,false
12888,21137,ויצמן/ריינס,רחוב: וייצמן עיר: גבעתיים רציף:  קומה:,32.067865,34.808579,0,,21137,POINT (34.808579 32.067865),POINT (182070.62866809592 663905.168078232),[663905.168078232 182070.62866809592],663905.168078232,182070.62866809592,4.2782983938520345E-4,-7.75678501296489,false
12889,21139,ת. רכבת תל אביב סבידור/על פרשת דרכים,רחוב: על פרשת דרכים 3 עיר: תל אביב יפו רציף:  קומה:,32.082475,34.795453,0,,21139,POINT (34.795453 32.082475),POINT (180837.34262198367 665529.9007552299),[665529.9007552299 180837.34262198367],665529.9007552299,180837.34262198367,5.740662013314166E-4,-7.462765834965091,false
12890,21140,ת. רכבת תל אביב סבידור/על פרשת דרכים,רחוב: על פרשת דרכים עיר: תל אביב יפו רציף:  קומה:,32.08224,34.795351,0,,21140,POINT (34.795351 32.08224),POINT (180827.6139110234 665503.8779843705),[665503.8779843705 180827.6139110234],665503.8779843705,180827.6139110234,4.23265482220353E-4,-7.767510958245312,false
12891,21141,ויצמן/רמב''ם,רחוב: וייצמן 50 עיר: גבעתיים רציף:  קומה:,32.069971,34.808479,0,,21141,POINT (34.808479 32.069971),POINT (182062.04318906064 664138.7376870281),[664138.7376870281 182062.04318906064],664138.7376870281,182062.04318906064,0.0,-Infinity,false
12893,21150,לונדון מיניסטור/שד' שאול המלך,רחוב: שדרות שאול המלך 9 עיר: תל אביב יפו רציף:  קומה:,32.075664,34.782893,0,,21150,POINT (34.782893 32.075664),POINT (179648.59504716037 664779.1903817498),[664779.1903817498 179648.59504716037],664779.1903817498,179648.59504716037,3.8561478380705284E-4,-7.860671656214252,false
12894,21155,ארלוזורוב/שלמה המלך,רחוב: ארלוזורוב 53 עיר: תל אביב יפו רציף:  קומה:,32.086039,34.778783,0,,21155,POINT (34.778783 32.086039),POINT (179265.07931385498 665931.2050623025),[665931.2050623025 179265.07931385498],665931.2050623025,179265.07931385498,2.1829919658304154E-4,-8.42964397474936,false
12898,21161,ת.רק''ל אהרונוביץ'/דרך ז'בוטינסקי,רחוב: דרך זאב ז'בוטינסקי 174 עיר: בני ברק רציף:  קומה:,32.092564,34.840305,0,,21161,POINT (34.840305 32.092564),POINT (185075.6135647465 666633.4971464837),[666633.4971464837 185075.6135647465],666633.4971464837,185075.6135647465,0.004120210862206264,-5.49185093678321,true
12899,21163,מרכז הספורט/בכור שטרית,רחוב: בכור שלום שטרית 16 עיר: תל אביב יפו רציף:  קומה:,32.105868,34.820154,0,,21163,POINT (34.820154 32.105868),POINT (183178.6198753778 668115.3898690091),[668115.3898690091 183178.6198753778],668115.3898690091,183178.6198753778,3.553177375523506E-5,-10.245083226429475,false
12900,21165,מגדל ויטה/דרך בן גוריון,רחוב: דרך בן גוריון 11 עיר: בני ברק רציף:  קומה:,32.094143,34.822193,0,,21165,POINT (34.822193 32.094143),POINT (183366.46309484163 666814.5113695667),[666814.5113695667 183366.46309484163],666814.5113695667,183366.46309484163,5.799611807149729E-4,-7.4525493864654795,false
12901,21168,ז'בוטינסקי/ביאליק,רחוב: דרך זאב ז'בוטינסקי 92 עיר: בני ברק רציף:  קומה:,32.092852,34.836518,0,,21168,POINT (34.836518 32.092852),POINT (184718.23019848394 666666.6472419507),[666666.6472419507 184718.23019848394],666666.6472419507,184718.23019848394,0.0,-Infinity,false
12903,21173,ביה''ח איכילוב/ויצמן,רחוב: וייצמן 9 עיר: תל אביב יפו רציף:  קומה:,32.080094,34.788557,0,,21173,POINT (34.788557 32.080094),POINT (180185.26986748676 665268.3598367266),[665268.3598367266 180185.26986748676],665268.3598367266,180185.26986748676,1.4437423155918121E-5,-11.145686892230236,false
12904,21179,אלנבי/יהודה הלוי,רחוב: אלנבי 119 עיר: תל אביב יפו רציף:  קומה:,32.061549,34.77366,0,,21179,POINT (34.77366 32.061549),POINT (178770.58848409133 663217.414880254),[663217.414880254 178770.58848409133],663217.414880254,178770.58848409133,1.2020520762815161E-5,-11.32889530510226,false
12905,21181,דרך הטייסים/דרך חיים בר לב,רחוב: דרך הטייסים עיר: רמת גן רציף:  קומה:,32.045478,34.813616,0,,21181,POINT (34.813616 32.045478),POINT (182537.2600147595 661420.9385951941),[661420.9385951941 182537.2600147595],661420.9385951941,182537.2600147595,1.3938212302043164E-4,-8.87829131018275,false
12906,21182,הירדן/ אצ''ל,רחוב: הירדן 42 עיר: רמת גן רציף:  קומה:,32.066029,34.82832,0,,21182,POINT (34.82832 32.066029),POINT (183933.9700807337 663694.9052161553),[663694.9052161553 183933.9700807337],663694.9052161553,183933.9700807337,1.1722145078500066E-4,-9.051445670393019,false
12910,21188,דרך נמיר/יהודה המכבי,רחוב: דרך נמיר 127 עיר: תל אביב יפו רציף:  קומה:,32.095376,34.794137,0,,21188,POINT (34.794137 32.095376),POINT (180718.541855902 666960.9739619934),[666960.9739619934 180718.541855902],666960.9739619934,180718.541855902,0.006907322230382076,-4.9751732372369855,true
12911,21189,ת.רק''ל אבא הלל/דרך ז'בוטינסקי,רחוב: דרך זאב ז'בוטינסקי 15 עיר: רמת גן רציף:  קומה:,32.083245,34.804764,0,,21189,POINT (34.804764 32.083245),POINT (181716.7146489221 665611.9909619311),[665611.9909619311 181716.7146489221],665611.9909619311,181716.7146489221,4.26186678883814E-5,-10.063218187334089,false
12912,21190,אורט סינגלובסקי/דרך הטייסים,רחוב: דרך הטייסים עיר: תל אביב יפו רציף:  קומה:,32.058525,34.803997,0,,21190,POINT (34.803997 32.058525),POINT (181634.12794317154 662871.0499811479),[662871.0499811479 181634.12794317154],662871.0499811479,181634.12794317154,8.497082301010367E-4,-7.070617526111329,false
12915,21194,דרך משה דיין/ההגנה,רחוב: דרך משה דיין 45 עיר: תל אביב יפו רציף:  קומה:,32.052456,34.799862,0,,21194,POINT (34.799862 32.052456),POINT (181241.11639283932 662199.5142482566),[662199.5142482566 181241.11639283932],662199.5142482566,181241.11639283932,2.543566005399374E-4,-8.276773336413232,false
12916,21195,דרך ז'בוטינסקי/החשמונאים,רחוב: דרך זאב ז'בוטינסקי 42 עיר: רמת גן רציף:  קומה:,32.084365,34.809367,0,,21195,POINT (34.809367 32.084365),POINT (182151.73706148527 665734.5872039363),[665734.5872039363 182151.73706148527],665734.5872039363,182151.73706148527,6.321257390255999E-4,-7.366422229451739,false
12917,21196,ביאליק/מבוא הרימון,רחוב: ביאליק 100 עיר: רמת גן רציף:  קומה:,32.08688,34.808117,0,,21196,POINT (34.808117 32.08688),POINT (182034.75142017653 666013.9100254322),[666013.9100254322 182034.75142017653],666013.9100254322,182034.75142017653,6.805996626470046E-5,-9.595121384561628,false
12918,21197,ביאליק/תובל,רחוב: ביאליק 125 עיר: רמת גן רציף:  קומה:,32.08834,34.803723,0,,21197,POINT (34.803723 32.08834),POINT (181620.53359293216 666177.3433445288),[666177.3433445288 181620.53359293216],666177.3433445288,181620.53359293216,0.0021312564506072566,-6.151043590259136,true
12920,21199,קניון רמת אביב/ברודצקי,רחוב: ברודצקי 66 עיר: תל אביב יפו רציף:  קומה:,32.112327,34.797919,0,,21199,POINT (34.797919 32.112327),POINT (181082.64134466823 668839.3343486694),[668839.3343486694 181082.64134466823],668839.3343486694,181082.64134466823,3.423859884609965E-4,-7.9795718360848245,false
12924,21206,בית המשפט/ויצמן,רחוב: וייצמן עיר: תל אביב יפו רציף:  קומה:,32.078598,34.788342,0,,21206,POINT (34.788342 32.078598),POINT (180164.3311237829 665102.5457897732),[665102.5457897732 180164.3311237829],665102.5457897732,180164.3311237829,4.517800361035235E-4,-7.7023151423712,false
12925,21209,לה גווארדייה/לוחמי גליפולי,רחוב: לה גווארדיה 50 עיר: תל אביב יפו רציף:  קומה:,32.059086,34.795294,0,,21209,POINT (34.795294 32.059086),POINT (180812.4954991509 662936.3419849095),[662936.3419849095 180812.4954991509],662936.3419849095,180812.4954991509,9.115537514344341E-5,-9.302945088271716,false
12927,21215,ביה''ס אלומות/רדינג,רחוב: רדינג 39 עיר: תל אביב יפו רציף:  קומה:,32.108371,34.79409,0,,21215,POINT (34.79409 32.108371),POINT (180719.59087306578 668402.0188195098),[668402.0188195098 180719.59087306578],668402.0188195098,180719.59087306578,1.8805605612311514E-5,-10.881355561704835,false
12928,21216,רדינג/אשר ברש,רחוב: רדינג 43 עיר: תל אביב יפו רציף:  קומה:,32.109117,34.794712,0,,21216,POINT (34.794712 32.109117),POINT (180778.61211809923 668484.5202042005),[668484.5202042005 180778.61211809923],668484.5202042005,180778.61211809923,3.079509458131738E-6,-12.690740240503446,false
12929,21218,דרך הטייסים/עודד,רחוב: דרך הטייסים 66 עיר: תל אביב יפו רציף:  קומה:,32.054438,34.810845,0,,21218,POINT (34.810845 32.054438),POINT (182279.16618868377 662415.4633137076),[662415.4633137076 182279.16618868377],662415.4633137076,182279.16618868377,7.880834114591642E-4,-7.145906621602795,false
12930,21219,בית עלמין צבאי/משה סנה,רחוב: משה סנה 83 עיר: תל אביב יפו רציף:  קומה:,32.128115,34.828144,0,,21219,POINT (34.828144 32.128115),POINT (183941.38181955245 670579.7215207743),[670579.7215207743 183941.38181955245],670579.7215207743,183941.38181955245,7.136154596504964E-4,-7.245166312624711,false
12931,21220,חיבת ציון/דרך בן גוריון,רחוב: חיבת ציון 11 עיר: רמת גן רציף:  קומה:,32.079364,34.821279,0,,21220,POINT (34.821279 32.079364),POINT (183274.36001422995 665175.9664566821),[665175.9664566821 183274.36001422995],665175.9664566821,183274.36001422995,9.699741419648763E-5,-9.240826237584384,false
12932,21221,קריית הממשלה/דרך מנחם בגין,רחוב: דרך מנחם בגין עיר: תל אביב יפו רציף:  קומה:,32.070648,34.78884,0,,21221,POINT (34.78884 32.070648),POINT (180207.95319941908 664220.784945275),[664220.784945275 180207.95319941908],664220.784945275,180207.95319941908,0.0013138356518388459,-6.634804441446286,true
12933,21223,הנדיב/ז'בוטינסקי,רחוב: הנדיב 73 עיר: הרצליה רציף:  קומה:,32.170883,34.829638,0,,21223,POINT (34.829638 32.170883),POINT (184098.87286061008 675321.8411508584),[675321.8411508584 184098.87286061008],675321.8411508584,184098.87286061008,1.6504514346121839E-4,-8.709291524749798,false
12935,21226,יהודה הלוי/שיינקין,רחוב: יהודה הלוי 111 עיר: תל אביב יפו רציף:  קומה:,32.067083,34.779432,0,,21226,POINT (34.779432 32.067083),POINT (179318.06739861888 663828.921102509),[663828.921102509 179318.06739861888],663828.921102509,179318.06739861888,1.354314314639109E-4,-8.907045086583151,false
12936,21227,קמפוס ברושים/שלום רוזנפלד,רחוב: שלום רוזנפלד עיר: תל אביב יפו רציף:  קומה:,32.106708,34.802776,0,,21227,POINT (34.802776 32.106708),POINT (181538.72143678935 668214.5186776642),[668214.5186776642 181538.72143678935],668214.5186776642,181538.72143678935,9.978399503625843E-4,-6.909917664891686,false
12937,21228,בן גוריון/ החץ,רחוב: דרך בן גוריון 111 עיר: רמת גן רציף:  קומה:,32.082033,34.820663,0,,21228,POINT (34.820663 32.082033),POINT (183217.25438906823 665472.1397810378),[665472.1397810378 183217.25438906823],665472.1397810378,183217.25438906823,8.2162842424722E-4,-7.104222303737042,false
12938,21229,בן גוריון/ הרא''ה,רחוב: דרך בן גוריון 114 עיר: רמת גן רציף:  קומה:,32.083188,34.821066,0,,21229,POINT (34.821066 32.083188),POINT (183255.75721377638 665600.0829481172),[665600.0829481172 183255.75721377638],665600.0829481172,183255.75721377638,6.942513525786621E-4,-7.272676483520477,false
12939,21230,דרך בן גוריון/יהושע בן נון,רחוב: דרך בן גוריון 21 עיר: בני ברק רציף:  קומה:,32.092133,34.822562,0,,21230,POINT (34.822562 32.092133),POINT (183400.50663929433 666591.4977551177),[666591.4977551177 183400.50663929433],666591.4977551177,183400.50663929433,2.0642477706028675E-4,-8.48557448766482,false
12940,21231,דרך בן גוריון/דרך ז'בוטינסקי,רחוב: דרך בן גוריון 42 עיר: רמת גן רציף:  קומה:,32.090189,34.822531,0,,21231,POINT (34.822531 32.090189),POINT (183396.816689101 666375.9367901415),[666375.9367901415 183396.816689101],666375.9367901415,183396.816689101,4.1293305153069896E-6,-12.397395266962654,false
12941,21232,דרך בן גוריון/מגדים,רחוב: דרך בן גוריון 49 עיר: בני ברק רציף:  קומה:,32.088772,34.82271,0,,21232,POINT (34.82271 32.088772),POINT (183413.1584551252 666218.74501442),[666218.74501442 183413.1584551252],666218.74501442,183413.1584551252,1.2630078949080181E-6,-13.582014463698577,false
12943,21234,שד' קק''ל/שלמה בן יוסף,רחוב: שדרות קרן קיימת לישראל 19 עיר: תל אביב יפו רציף:  קומה:,32.122078,34.798889,0,,21234,POINT (34.798889 32.122078),POINT (181178.25958001433 669920.2894446028),[669920.2894446028 181178.25958001433],669920.2894446028,181178.25958001433,4.722155928925295E-4,-7.658074912061099,false
12944,21235,קמפוס ברושים/שלום רוזנפלד,רחוב: שלום רוזנפלד עיר: תל אביב יפו רציף:  קומה:,32.10609,34.800994,0,,21235,POINT (34.800994 32.10609),POINT (181370.26993320856 668146.6162497597),[668146.6162497597 181370.26993320856],668146.6162497597,181370.26993320856,3.382151710004899E-5,-10.294413357426338,false
12945,21237,יצחק שדה/המסגר,רחוב: יצחק שדה 15 עיר: תל אביב יפו רציף:  קומה:,32.065676,34.785302,0,,21237,POINT (34.785302 32.065676),POINT (179871.74402282096 663670.7301170116),[663670.7301170116 179871.74402282096],663670.7301170116,179871.74402282096,7.440390279300453E-4,-7.203417067611775,false
12946,21238,בית המשפט/ויצמן,רחוב: וייצמן 6 עיר: תל אביב יפו רציף:  קומה:,32.078868,34.788581,0,,21238,POINT (34.788581 32.078868),POINT (180187.0116182689 665132.3992259103),[665132.3992259103 180187.0116182689],665132.3992259103,180187.0116182689,1.868334112277341E-4,-8.585293187201072,false
12949,21241,יהודה הלוי/נחלת בנימין,רחוב: יהודה הלוי 29 עיר: תל אביב יפו רציף:  קומה:,32.061662,34.771205,0,,21241,POINT (34.771205 32.061662),POINT (178538.8080022733 663230.8735541269),[663230.8735541269 178538.8080022733],663230.8735541269,178538.8080022733,2.8627501843611083E-5,-10.461142699258916,false
12950,21242,הירדן/אצ''ל,רחוב: הירדן 27 עיר: רמת גן רציף:  קומה:,32.066666,34.828536,0,,21242,POINT (34.828536 32.066666),POINT (183954.6124443485 663765.471154935),[663765.471154935 183954.6124443485],663765.471154935,183954.6124443485,1.4990707705941567E-4,-8.805494942099482,false
12951,21243,החשמונאים/דרך מנחם בגין,רחוב: החשמונאים 123 עיר: תל אביב יפו רציף:  קומה:,32.069409,34.786788,0,,21243,POINT (34.786788 32.069409),POINT (180013.6660406118 664084.1398973056),[664084.1398973056 180013.6660406118],664084.1398973056,180013.6660406118,1.6646170807266034E-4,-8.70074525653917,false
12952,21244,דרך מנחם בגין/הרכבת,רחוב: דרך מנחם בגין 48 עיר: תל אביב יפו רציף:  קומה:,32.063416,34.780072,0,,21244,POINT (34.780072 32.063416),POINT (179376.90105907054 663422.0481303069),[663422.0481303069 179376.90105907054],663422.0481303069,179376.90105907054,0.0012766316067408595,-6.6635302269176595,true
12959,21254,צומת חולון/דרך השיריון,רחוב: יציאה לדרך השיריון עיר: תל אביב יפו רציף:  קומה:,32.038789,34.779755,0,,21254,POINT (34.779755 32.038789),POINT (179336.22287378696 660691.2739463858),[660691.2739463858 179336.22287378696],660691.2739463858,179336.22287378696,0.004603943797062415,-5.380841995611778,true
12961,21256,ת.מרכזית תל אביב קומה 6/רציפים,רחוב: תחנה מרכזית קומה 6 עיר: תל אביב יפו רציף:  קומה:,32.055908,34.779085,1,,21256,POINT (34.779085 32.055908),POINT (179280.4171037398 662589.8506180203),[662589.8506180203 179280.4171037398],662589.8506180203,179280.4171037398,0.0,-Infinity,false
12962,21257,מחלף גבעת שמואל/כביש 4,רחוב: 4 עיר: גבעת שמואל רציף:  קומה:,32.076767,34.844303,0,,21257,POINT (34.844303 32.076767),POINT (185447.17440150163 664880.4943817954),[664880.4943817954 185447.17440150163],664880.4943817954,185447.17440150163,0.008763120105819106,-4.737203260986248,true
12963,21258,גשר בר אילן/כביש 4,רחוב: יציאה למחלף בר אילן עיר: רמת גן רציף:  קומה:,32.067809,34.83984,0,,21258,POINT (34.83984 32.067809),POINT (185022.4381412174 663888.5557579584),[663888.5557579584 185022.4381412174],663888.5557579584,185022.4381412174,0.012421573006445698,-4.388320559413791,true
12967,21263,העצמאות/דרך ירושלים,רחוב: העצמאות 109 עיר: הרצליה רציף:  קומה:,32.165851,34.852739,0,,21263,POINT (34.852739 32.165851),POINT (186275.9176723482 674756.4769550074),[674756.4769550074 186275.9176723482],674756.4769550074,186275.9176723482,1.9345805605979865E-4,-8.550449833540112,false
12968,21264,לה גווארדייה/יגאל אלון,רחוב: לה גווארדיה 27 עיר: תל אביב יפו רציף:  קומה:,32.059304,34.790544,0,,21264,POINT (34.790544 32.059304),POINT (180364.02427067878 662962.2264759947),[662962.2264759947 180364.02427067878],662962.2264759947,180364.02427067878,0.001638312254640561,-6.414088680070469,true
12969,21265,דרך בר לב/דרך הטייסים,רחוב: דרך חיים ברלב 207 עיר: תל אביב יפו רציף:  קומה:,32.044958,34.8114,0,,21265,POINT (34.8114 32.044958),POINT (182327.752459531 661364.0356674397),[661364.0356674397 182327.752459531],661364.0356674397,182327.752459531,3.658951238858274E-5,-10.215748905379355,false
12973,21270,מבצע קדש/ראול ולנברג,רחוב: מבצע קדש עיר: תל אביב יפו רציף:  קומה:,32.106557,34.827452,0,,21270,POINT (34.827452 32.106557),POINT (183867.71808426897 668189.3609962446),[668189.3609962446 183867.71808426897],668189.3609962446,183867.71808426897,6.056707380849346E-4,-7.4091740560492285,false
12974,21273,שד' קק''ל/אופנהיימר,רחוב: שדרות קרן קיימת לישראל 20 עיר: תל אביב יפו רציף:  קומה:,32.121636,34.80015,0,,21273,POINT (34.80015 32.121636),POINT (181297.07584755286 669870.8282374238),[669870.8282374238 181297.07584755286],669870.8282374238,181297.07584755286,0.0010415105028477513,-6.867083212966757,true
12975,21274,מחלף לה גווארדייה,רחוב: לה גווארדיה עיר: תל אביב יפו רציף:  קומה:,32.059454,34.786354,0,,21274,POINT (34.786354 32.059454),POINT (179968.40893725632 662980.385178084),[662980.385178084 179968.40893725632],662980.385178084,179968.40893725632,0.03721179530481069,-3.29112948987536,true
12976,21275,המסילה/שדמות,רחוב: המסילה 40 עיר: הרצליה רציף:  קומה:,32.174379,34.819479,0,,21275,POINT (34.819479 32.174379),POINT (183142.07012004603 675712.9030447361),[675712.9030447361 183142.07012004603],675712.9030447361,183142.07012004603,0.0,-Infinity,false
12978,21277,דרך משה דיין/ההגנה,רחוב: דרך משה דיין 42 עיר: תל אביב יפו רציף:  קומה:,32.051417,34.8,0,,21277,POINT (34.8 32.051417),POINT (181253.71760919364 662084.2506474658),[662084.2506474658 181253.71760919364],662084.2506474658,181253.71760919364,1.345900088675944E-4,-8.913277371832669,false
12979,21280,גבעת שמואל/גשר הולכי רגל,רחוב: 4 עיר: גבעת שמואל רציף:  קומה:,32.082795,34.845457,0,,21280,POINT (34.845457 32.082795),POINT (185558.35535266466 665548.5777821196),[665548.5777821196 185558.35535266466],665548.5777821196,185558.35535266466,0.0070114299850924724,-4.960213606571954,true
12980,21281,פארק וולפסון/דרך הטייסים,רחוב: דרך הטייסים 42 עיר: תל אביב יפו רציף:  קומה:,32.056367,34.806825,0,,21281,POINT (34.806825 32.056367),POINT (181900.3085869415 662630.7617234729),[662630.7617234729 181900.3085869415],662630.7617234729,181900.3085869415,5.7049086326840786E-5,-9.771598497089593,false
12981,21282,דרך הטייסים/דרך בר לב,רחוב: דרך הטייסים 124 עיר: תל אביב יפו רציף:  קומה:,32.046202,34.813526,0,,21282,POINT (34.813526 32.046202),POINT (182529.05035751153 661501.2536302625),[661501.2536302625 182529.05035751153],661501.2536302625,182529.05035751153,0.0011497545554437617,-6.7682067894353155,true
12982,21284,דרך השלום/חביבה רייק,רחוב: דרך השלום 31 עיר: גבעתיים רציף:  קומה:,32.069428,34.802586,0,,21284,POINT (34.802586 32.069428),POINT (181505.38261904457 664080.5815796353),[664080.5815796353 181505.38261904457],664080.5815796353,181505.38261904457,4.5518084846698196E-4,-7.694815748825063,false
12983,21285,אלוף שדה/עודד,רחוב: אלוף שדה עיר: רמת גן רציף:  קומה:,32.05839,34.812677,0,,21285,POINT (34.812677 32.05839),POINT (182453.7694970584 662853.0713665881),[662853.0713665881 182453.7694970584],662853.0713665881,182453.7694970584,0.0013970936151423167,-6.5733611893975,true
12984,21286,דרך בר לב/אונטרמן,רחוב: דרך חיים ברלב 134 עיר: תל אביב יפו רציף:  קומה:,32.045863,34.804118,0,,21286,POINT (34.804118 32.045863),POINT (181640.34732310596 661466.9180474117),[661466.9180474117 181640.34732310596],661466.9180474117,181640.34732310596,4.629431544897772E-4,-7.677906287895651,false
12985,21287,דרך בר לב/שד' ששת הימים,רחוב: דרך חיים ברלב 178 עיר: תל אביב יפו רציף:  קומה:,32.045144,34.808098,0,,21287,POINT (34.808098 32.045144),POINT (182015.95777957988 661385.8013028919),[661385.8013028919 182015.95777957988],661385.8013028919,182015.95777957988,0.001555639452276962,-6.4658685945508445,true
12987,21289,אסותא/יגאל אלון,רחוב: יגאל אלון 98 עיר: תל אביב יפו רציף:  קומה:,32.069847,34.793808,0,,21289,POINT (34.793808 32.069847),POINT (180676.7068167188 664130.165525375),[664130.165525375 180676.7068167188],664130.165525375,180676.7068167188,2.7360131016532045E-4,-8.203838583611407,false
12988,21301,לה גווארדייה/הגיבור האלמוני,רחוב: לה גווארדיה 69 עיר: תל אביב יפו רציף:  קומה:,32.059183,34.798721,0,,21301,POINT (34.798721 32.059183),POINT (181136.16294100854 662945.8765678647),[662945.8765678647 181136.16294100854],662945.8765678647,181136.16294100854,3.30398471047312E-4,-8.015211143908934,false
12990,21303,בית הדר דפנה/שד' שאול המלך,רחוב: שדרות שאול המלך עיר: תל אביב יפו רציף:  קומה:,32.077609,34.791101,0,,21303,POINT (34.791101 32.077609),POINT (180424.40041509553 664991.8734924659),[664991.8734924659 180424.40041509553],664991.8734924659,180424.40041509553,0.0011894580956949914,-6.734257457345381,true
12991,21305,גן התקווה/דרך ההגנה,רחוב: דרך ההגנה 104 עיר: תל אביב יפו רציף:  קומה:,32.053625,34.794493,0,,21305,POINT (34.794493 32.053625),POINT (180734.5533628551 662331.0578725958),[662331.0578725958 180734.5533628551],662331.0578725958,180734.5533628551,3.6308623230169805E-4,-7.920870197360905,false
12992,21307,ביה''ס נתיב/דרך ההגנה,רחוב: דרך ההגנה 115 עיר: תל אביב יפו רציף:  קומה:,32.053634,34.79721,0,,21307,POINT (34.79721 32.053634),POINT (180991.15090211155 662331.0845840676),[662331.0845840676 180991.15090211155],662331.0845840676,180991.15090211155,4.75281469186041E-4,-7.651603362720503,false
12993,21311,גן התקווה/דרך ההגנה,רחוב: דרך ההגנה 97 עיר: תל אביב יפו רציף:  קומה:,32.053834,34.793863,0,,21311,POINT (34.793863 32.053834),POINT (180675.14424596602 662354.4600479146),[662354.4600479146 180675.14424596602],662354.4600479146,180675.14424596602,6.03047440195938E-4,-7.413514690706592,false
12995,21313,המסילה/שדמות,רחוב: המסילה 69 עיר: הרצליה רציף:  קומה:,32.174076,34.819305,0,,21313,POINT (34.819305 32.174076),POINT (183125.53888863616 675679.3614866671),[675679.3614866671 183125.53888863616],675679.3614866671,183125.53888863616,0.0,-Infinity,false
12997,21315,קניון טי.אל.וי/החשמונאים,רחוב: החשמונאים 97 עיר: תל אביב יפו רציף:  קומה:,32.069583,34.784201,0,,21315,POINT (34.784201 32.069583),POINT (179769.4664475381 664104.3833555921),[664104.3833555921 179769.4664475381],664104.3833555921,179769.4664475381,2.5662310043130904E-6,-12.873072270759284,false
12998,21316,החשמונאים/יהודה הלוי,רחוב: החשמונאים 70 עיר: תל אביב יפו רציף:  קומה:,32.06998,34.780607,0,,21316,POINT (34.780607 32.06998),POINT (179430.28031042783 664149.7343340651),[664149.7343340651 179430.28031042783],664149.7343340651,179430.28031042783,2.5455093954082408E-5,-10.57859467962946,false
12999,21317,יגאל אלון/לה גווארדייה,רחוב: יגאל אלון 48 עיר: תל אביב יפו רציף:  קומה:,32.059696,34.792069,0,,21317,POINT (34.792069 32.059696),POINT (180508.20267081796 663005.1441572845),[663005.1441572845 180508.20267081796],663005.1441572845,180508.20267081796,6.323068480643957E-5,-9.668720855548486,false
13000,21318,היכל הספורט/יגאל אלון,רחוב: יגאל אלון 47 עיר: תל אביב יפו רציף:  קומה:,32.060644,34.791891,0,,21318,POINT (34.791891 32.060644),POINT (180491.79529982444 663110.3323490229),[663110.3323490229 180491.79529982444],663110.3323490229,180491.79529982444,3.3379403392084324E-4,-8.004986420111237,false
13001,21319,הירדן/ אלוף שדה,רחוב: הירדן 103 עיר: רמת גן רציף:  קומה:,32.059308,34.828287,0,,21319,POINT (34.828287 32.059308),POINT (183928.25605381615 662949.6239053145),[662949.6239053145 183928.25605381615],662949.6239053145,183928.25605381615,9.242816855046754E-4,-6.986493678338975,false
13002,21320,הירדן/ נגבה,רחוב: הירדן 6 עיר: רמת גן רציף:  קומה:,32.069559,34.828538,0,,21320,POINT (34.828538 32.069559),POINT (183955.91897941695 664086.275746002),[664086.275746002 183955.91897941695],664086.275746002,183955.91897941695,2.830098550151849E-5,-10.47261393054619,false
13003,21321,הירדן/ פנחס,רחוב: הירדן 57 עיר: רמת גן רציף:  קומה:,32.063857,34.828494,0,,21321,POINT (34.828494 32.063857),POINT (183949.5612596174 663453.994636467),[663453.994636467 183949.5612596174],663453.994636467,183949.5612596174,3.294423564006917E-4,-8.018109161964226,false
